{
    "醫事機構代碼": {
        "name": "醫事機構名稱",
        "phone": "電話",
        "address": "地址",
        "lng": "TGOS X",
        "lat": "TGOS Y"
    },
    "5945030076": {
        "name": "仁仁藥局",
        "phone": "(03)8886566",
        "address": "花蓮縣玉里鎮光復路１５２號",
        "lng": "121.313206",
        "lat": "23.331436"
    },
    "5945030094": {
        "name": "德興藥局",
        "phone": "(03)8889408",
        "address": "花蓮縣玉里鎮國武里中山路２段５８號",
        "lng": "121.315149",
        "lat": "23.333096"
    },
    "5945040036": {
        "name": "黃藥局",
        "phone": "(03)8267211",
        "address": "花蓮縣新城鄉北埔村北埔路２０３號",
        "lng": "121.604032",
        "lat": "24.033064"
    },
    "5945050069": {
        "name": "富一藥局",
        "phone": "(03)8531432",
        "address": "花蓮縣吉安鄉宜昌村中華路２段２０１號",
        "lng": "121.580938",
        "lat": "23.973294"
    },
    "5945050176": {
        "name": "永和藥局",
        "phone": "(03)8573247",
        "address": "花蓮縣吉安鄉北昌村建國路１段１４５號",
        "lng": "121.59094",
        "lat": "23.985948"
    },
    "5945051208": {
        "name": "祥安藥局",
        "phone": "(03)8549719",
        "address": "花蓮縣吉安鄉南昌村吉興路１段８９號",
        "lng": "121.577315",
        "lat": "23.970347"
    },
    "5945051226": {
        "name": "仁里藥局",
        "phone": "(03)8512569",
        "address": "花蓮縣吉安鄉中正路１段１６３號",
        "lng": "121.591711",
        "lat": "23.965681"
    },
    "5945051271": {
        "name": "小叮噹藥局",
        "phone": "(03)8576886",
        "address": "花蓮縣吉安鄉建國路１段６３號１樓",
        "lng": "121.594482",
        "lat": "23.985008"
    },
    "5945070516": {
        "name": "平安藥局",
        "phone": "(03)8700765",
        "address": "花蓮縣光復鄉光華里忠孝路９８號",
        "lng": "121.4253175",
        "lat": "23.6646488"
    },
    "5945070534": {
        "name": "菩濟藥局",
        "phone": "(03)8705968",
        "address": "花蓮縣光復鄉敦厚路６號",
        "lng": "121.425715",
        "lat": "23.665542"
    },
    "5946010201": {
        "name": "大長春藥局",
        "phone": "(089)322466",
        "address": "臺東縣臺東市中山路３５３號",
        "lng": "121.149821",
        "lat": "22.754337"
    },
    "5946010229": {
        "name": "晃成藥局",
        "phone": "(089)336981",
        "address": "臺東縣臺東市更生路４９４號",
        "lng": "121.141123",
        "lat": "22.763546"
    },
    "5946010256": {
        "name": "健康大藥局",
        "phone": "(089)347049",
        "address": "臺東縣臺東市新生路４８９號",
        "lng": "121.1388352",
        "lat": "22.7604252"
    },
    "5946011459": {
        "name": "賀順藥局",
        "phone": "(089)345223",
        "address": "臺東縣臺東市更生路５６號",
        "lng": "121.150534",
        "lat": "22.756656"
    },
    "5946011477": {
        "name": "杏林藥局",
        "phone": "(089)328674",
        "address": "臺東縣臺東市中正里光明路１２６號",
        "lng": "121.152032",
        "lat": "22.755567"
    },
    "5946011486": {
        "name": "大東藥局",
        "phone": "(089)349747",
        "address": "臺東縣臺東市中山路２３８號",
        "lng": "121.151674",
        "lat": "22.756541"
    },
    "5946011566": {
        "name": "正德藥局",
        "phone": "(089)334181",
        "address": "臺東縣臺東市更生路１９９號２樓",
        "lng": "121.146264",
        "lat": "22.759752"
    },
    "5946030025": {
        "name": "大豐藥局",
        "phone": "(089)810502",
        "address": "臺東縣關山鎮中華路３８號",
        "lng": "121.163075",
        "lat": "23.047778"
    },
    "5946030034": {
        "name": "宏順藥局",
        "phone": "(089)813536",
        "address": "臺東縣關山鎮中華路１６號",
        "lng": "121.162632",
        "lat": "23.046522"
    },
    "5946041028": {
        "name": "安康藥局",
        "phone": "(089)383729",
        "address": "臺東縣卑南鄉太平里和平路１１１之６號",
        "lng": "121.086724",
        "lat": "22.782415"
    },
    "5946101065": {
        "name": "上和藥局",
        "phone": "(089)864171",
        "address": "臺東縣池上鄉忠孝路８６號",
        "lng": "121.216841",
        "lat": "23.120946"
    },
    "5946010194": {
        "name": "陳藥局",
        "phone": "(089)310659",
        "address": "臺東縣臺東市光明路１４３號",
        "lng": "121.151648",
        "lat": "22.75487"
    },
    "5945011311": {
        "name": "祥悅藥局",
        "phone": "(03)8323808",
        "address": "花蓮縣花蓮市和平路５４９號",
        "lng": "121.600454",
        "lat": "23.977609"
    },
    "5945011366": {
        "name": "康復藥局",
        "phone": "(03)8323658",
        "address": "花蓮縣花蓮市中和街２０１號",
        "lng": "121.598307",
        "lat": "23.974329"
    },
    "5945011428": {
        "name": "博愛藥局",
        "phone": "(03)8323335",
        "address": "花蓮縣花蓮市南京街２７６號",
        "lng": "121.606872",
        "lat": "23.974837"
    },
    "5945011526": {
        "name": "奧爾思藥局",
        "phone": "(03)8325573",
        "address": "花蓮縣花蓮市博愛街２１５號",
        "lng": "121.605598",
        "lat": "23.978229"
    },
    "5945021040": {
        "name": "人和藥局",
        "phone": "(03)8762712",
        "address": "花蓮縣鳳林鎮中正路２００號",
        "lng": "121.44996",
        "lat": "23.748991"
    },
    "5945021059": {
        "name": "家恩藥局",
        "phone": "(03)8760469",
        "address": "花蓮縣鳳林鎮中和路２００號之１",
        "lng": "121.450074",
        "lat": "23.748418"
    },
    "5945010038": {
        "name": "德生藥局",
        "phone": "(03)8322676",
        "address": "花蓮縣花蓮市中山路３２９號",
        "lng": "121.606661",
        "lat": "23.980232"
    },
    "5945010047": {
        "name": "邱藥局",
        "phone": "(03)8324573",
        "address": "花蓮縣花蓮市忠孝街４８號",
        "lng": "121.60661",
        "lat": "23.973934"
    },
    "5945010056": {
        "name": "健安藥局",
        "phone": "(03)8323031",
        "address": "花蓮縣花蓮市中山路５３７號",
        "lng": "121.601917",
        "lat": "23.986266"
    },
    "5945010118": {
        "name": "永昇藥局",
        "phone": "(03)8225887",
        "address": "花蓮縣花蓮市化道路２１２之１號",
        "lng": "121.62027",
        "lat": "24.002013"
    },
    "5945010136": {
        "name": "保康藥局",
        "phone": "(03)8579760",
        "address": "花蓮縣花蓮市建國路２段３４０號",
        "lng": "121.576509",
        "lat": "23.992603"
    },
    "5945010154": {
        "name": "郭藥局",
        "phone": "(03)8230761",
        "address": "花蓮縣花蓮市中美路９５號之３",
        "lng": "121.624669",
        "lat": "23.990268"
    },
    "5945010252": {
        "name": "吉康藥局",
        "phone": "(03)8331208",
        "address": "花蓮縣花蓮市中正路３６０號",
        "lng": "121.602919",
        "lat": "23.97415"
    },
    "5945010289": {
        "name": "易生藥局",
        "phone": "(03)8322927",
        "address": "花蓮縣花蓮市中正路４４３號",
        "lng": "121.604473",
        "lat": "23.975465"
    },
    "5944040014": {
        "name": "金福藥局",
        "phone": "(06)9984048",
        "address": "澎湖縣西嶼鄉池東村４３之２號",
        "lng": "119.509385",
        "lat": "23.601222"
    },
    "5943010272": {
        "name": "新東海藥局",
        "phone": "(08)7224861",
        "address": "屏東縣屏東市長春里民生路１１６號",
        "lng": "120.4961358",
        "lat": "22.6686194"
    },
    "5943010281": {
        "name": "應安藥局",
        "phone": "(08)7327128",
        "address": "屏東縣屏東市必信里民族路３０５－７號",
        "lng": "120.481003",
        "lat": "22.670947"
    },
    "5943010343": {
        "name": "名石藥局",
        "phone": "(08)7363184",
        "address": "屏東縣屏東市大連路６０－１０號",
        "lng": "120.502166",
        "lat": "22.681825"
    },
    "5943010398": {
        "name": "銘展藥局",
        "phone": "(08)7371713",
        "address": "屏東縣屏東市大連里建豐路２５４號",
        "lng": "120.502438",
        "lat": "22.676777"
    },
    "5943010487": {
        "name": "正安藥局",
        "phone": "(08)7655845",
        "address": "屏東縣屏東市永光里大同路１７７號",
        "lng": "120.475506",
        "lat": "22.670184"
    },
    "5943010496": {
        "name": "惠恩藥局",
        "phone": "(08)7664830",
        "address": "屏東縣屏東市空翔里勝利路２０２號",
        "lng": "120.479825",
        "lat": "22.679136"
    },
    "5943010665": {
        "name": "中美藥局",
        "phone": "(08)7348697",
        "address": "屏東縣屏東市扶風里林森路４５號",
        "lng": "120.4936673",
        "lat": "22.6724044"
    },
    "5943010683": {
        "name": "弘盛藥局",
        "phone": "(08)7367470",
        "address": "屏東縣屏東市海豐街２９－１號",
        "lng": "120.510323",
        "lat": "22.700845"
    },
    "5943010763": {
        "name": "一生藥局",
        "phone": "(08)7665353",
        "address": "屏東縣屏東市民族路４９２號",
        "lng": "120.476227",
        "lat": "22.671482"
    },
    "5943011037": {
        "name": "正源藥局",
        "phone": "(08)7558891",
        "address": "屏東縣屏東市龍華路１８４號",
        "lng": "120.48204",
        "lat": "22.635505"
    },
    "5943011135": {
        "name": "昱昇藥師藥局",
        "phone": "(08)7377471",
        "address": "屏東縣屏東市北勢里中正路３７３－１號",
        "lng": "120.4944011",
        "lat": "22.6851317"
    },
    "5943011279": {
        "name": "馥生中西藥局",
        "phone": "(08)7536611",
        "address": "屏東縣屏東市大武里大武路５４號",
        "lng": "120.477771",
        "lat": "22.656619"
    },
    "5943012570": {
        "name": "和信藥局",
        "phone": "(08)7515918",
        "address": "屏東縣屏東市棒球路８９號",
        "lng": "120.480737",
        "lat": "22.655778"
    },
    "5943012614": {
        "name": "杏林藥局",
        "phone": "(08)7530233",
        "address": "屏東縣屏東市復興路１３８號",
        "lng": "120.48846",
        "lat": "22.665906"
    },
    "5943012687": {
        "name": "禾康藥局",
        "phone": "(08)7375818",
        "address": "屏東縣屏東市中正路４６０號",
        "lng": "120.494157",
        "lat": "22.684492"
    },
    "5942171105": {
        "name": "中心藥局",
        "phone": "(07)6921058",
        "address": "高雄市茄萣區仁愛路三段２１８號",
        "lng": "120.183848",
        "lat": "22.903287"
    },
    "5942190048": {
        "name": "南安藥局",
        "phone": "(07)6191802",
        "address": "高雄市彌陀區漯底里樂安路５３號",
        "lng": "120.243339",
        "lat": "22.765291"
    },
    "5942240025": {
        "name": "蔡藥局",
        "phone": "(07)6671131",
        "address": "高雄市內門區內門里內門路６４號",
        "lng": "120.463737",
        "lat": "22.945374"
    },
    "5942240043": {
        "name": "光輝藥局",
        "phone": "(07)6671106",
        "address": "高雄市內門區鄉觀亭里南屏路２３０號",
        "lng": "120.454734",
        "lat": "22.923054"
    },
    "5943010049": {
        "name": "統和藥局",
        "phone": "(08)7379898",
        "address": "屏東縣屏東市德豐街６３號",
        "lng": "120.508803",
        "lat": "22.677942"
    },
    "5943010076": {
        "name": "大茂藥局",
        "phone": "(08)7323293",
        "address": "屏東縣屏東市逢甲路８５號",
        "lng": "120.487116",
        "lat": "22.6703"
    },
    "5943010156": {
        "name": "新東洋藥局",
        "phone": "(08)7323388",
        "address": "屏東縣屏東市民生路２３８號",
        "lng": "120.492427",
        "lat": "22.670135"
    },
    "5943010192": {
        "name": "立眾藥局",
        "phone": "(08)7665443",
        "address": "屏東縣屏東市勝利路１９０－４號",
        "lng": "120.48053",
        "lat": "22.679176"
    },
    "5942200030": {
        "name": "順成藥局",
        "phone": "(07)6172407",
        "address": "高雄市梓官區梓官路城隍巷３１號",
        "lng": "120.268095",
        "lat": "22.759289"
    },
    "5942201171": {
        "name": "郭順忠藥局",
        "phone": "(07)6194418",
        "address": "高雄市梓官區大舍南路２６號",
        "lng": "120.261571",
        "lat": "22.746606"
    },
    "5942220023": {
        "name": "維康藥局",
        "phone": "(07)6752585",
        "address": "高雄市甲仙區西安里中正路２２號",
        "lng": "120.588499",
        "lat": "23.082911"
    },
    "5942220032": {
        "name": "文殊堂藥局",
        "phone": "(07)6752176",
        "address": "高雄市甲仙區西安里文化路２２號",
        "lng": "120.589408",
        "lat": "23.081938"
    },
    "5942220078": {
        "name": "宏仁藥局",
        "phone": "(07)6751255",
        "address": "高雄市甲仙區東安里和安街４８號",
        "lng": "120.589417",
        "lat": "23.083483"
    },
    "5943170059": {
        "name": "吉利藥局",
        "phone": "(08)8681290",
        "address": "屏東縣新園鄉仙吉村仙吉路１３７號",
        "lng": "120.462296",
        "lat": "22.545678"
    },
    "5943170077": {
        "name": "健安藥局",
        "phone": "(08)8322649",
        "address": "屏東縣新園鄉中洲村南興路１７０號",
        "lng": "120.458572",
        "lat": "22.487199"
    },
    "5943170095": {
        "name": "長安中西藥局",
        "phone": "(08)8336986",
        "address": "屏東縣新園鄉中洲村南興路１９４號",
        "lng": "120.458624",
        "lat": "22.487759"
    },
    "5943171163": {
        "name": "郁達藥局",
        "phone": "(08)8681258",
        "address": "屏東縣新園鄉仙吉村仙吉路二十七之二號",
        "lng": "120.459484",
        "lat": "22.539603"
    },
    "5943190033": {
        "name": "陽昇藥局",
        "phone": "(08)8751347",
        "address": "屏東縣林邊鄉林邊村忠孝路３１－２號",
        "lng": "120.517982",
        "lat": "22.433558"
    },
    "5943190042": {
        "name": "永清堂藥局",
        "phone": "(08)8755138",
        "address": "屏東縣林邊鄉永樂村榮農路５巷７－３號",
        "lng": "120.516806",
        "lat": "22.438496"
    },
    "5943190088": {
        "name": "壽泰健康藥局",
        "phone": "(08)8752366",
        "address": "屏東縣林邊鄉仁和村中山路１９１號",
        "lng": "120.516359",
        "lat": "22.433278"
    },
    "5943191101": {
        "name": "和成健康藥局",
        "phone": "(08)8752028",
        "address": "屏東縣林邊鄉中林路一二三號",
        "lng": "120.517889",
        "lat": "22.434655"
    },
    "5943200016": {
        "name": "萬隆發藥局",
        "phone": "(08)8642176",
        "address": "屏東縣南州鄉仁里村三民路３９號",
        "lng": "120.509856",
        "lat": "22.489977"
    },
    "5943200052": {
        "name": "源明藥局",
        "phone": "(08)8642276",
        "address": "屏東縣南州鄉三民路１４８號",
        "lng": "120.506554",
        "lat": "22.489722"
    },
    "5943210076": {
        "name": "德馨藥局",
        "phone": "(08)8661492",
        "address": "屏東縣佳冬鄉石光村中山路１８５之３號",
        "lng": "120.562655",
        "lat": "22.434673"
    },
    "5943231048": {
        "name": "車城藥局",
        "phone": "(08)8825329",
        "address": "屏東縣車城鄉福興村中山路４２號",
        "lng": "120.713922",
        "lat": "22.073418"
    },
    "5944010025": {
        "name": "大智藥局",
        "phone": "(06)9262151",
        "address": "澎湖縣馬公市陽明里大智街２６號",
        "lng": "119.570898",
        "lat": "23.571159"
    },
    "5944010043": {
        "name": "新見安藥局",
        "phone": "(06)9277346",
        "address": "澎湖縣馬公市光明里光復路９５號",
        "lng": "119.570263",
        "lat": "23.57152"
    },
    "5944010061": {
        "name": "敏松藥局",
        "phone": "(06)9273241",
        "address": "澎湖縣馬公市民生路２５－９號",
        "lng": "119.566223",
        "lat": "23.567521"
    },
    "5944010070": {
        "name": "合珍藥局",
        "phone": "(06)9953082",
        "address": "澎湖縣馬公市鎖港里３８７－１號",
        "lng": "119.6008208",
        "lat": "23.5290446"
    },
    "5944010089": {
        "name": "宏安藥局",
        "phone": "(06)9273048",
        "address": "澎湖縣馬公市中華路５４號",
        "lng": "119.570783",
        "lat": "23.569737"
    },
    "5943050105": {
        "name": "萬丹藥局",
        "phone": "(08)7762889",
        "address": "屏東縣萬丹鄉萬安村和平西路５號",
        "lng": "120.489382",
        "lat": "22.58786"
    },
    "5943050150": {
        "name": "成大藥局",
        "phone": "(08)7771643",
        "address": "屏東縣萬丹鄉萬全村萬榮街８３號１．２樓",
        "lng": "120.490913",
        "lat": "22.591886"
    },
    "5943051175": {
        "name": "黃藥師藥局",
        "phone": "(08)7075529",
        "address": "屏東縣萬丹鄉社中村社皮路三段４２８．４３０號",
        "lng": "120.472284",
        "lat": "22.621413"
    },
    "5943060030": {
        "name": "睦昌藥局",
        "phone": "(08)7622433",
        "address": "屏東縣長治鄉崑崙路１８８之１５號",
        "lng": "120.533325",
        "lat": "22.689952"
    },
    "5943060049": {
        "name": "忠安中西藥局",
        "phone": "(08)7621326",
        "address": "屏東縣長治鄉中山路１０號",
        "lng": "120.575712",
        "lat": "22.70306"
    },
    "5943060067": {
        "name": "長興藥師藥局",
        "phone": "(08)7382328",
        "address": "屏東縣長治鄉長興路３０６號",
        "lng": "120.520729",
        "lat": "22.679219"
    },
    "5943070027": {
        "name": "泰安藥局",
        "phone": "(08)7221543",
        "address": "屏東縣麟洛鄉麟頂村民生路２６號",
        "lng": "120.528085",
        "lat": "22.652774"
    },
    "5943090029": {
        "name": "亞洲藥局",
        "phone": "(08)7752938",
        "address": "屏東縣里港鄉永春路８號",
        "lng": "120.496278",
        "lat": "22.774815"
    },
    "5943100011": {
        "name": "宏大藥局",
        "phone": "(08)7935513",
        "address": "屏東縣鹽埔鄉新二村彭厝路３８－５號",
        "lng": "120.556354",
        "lat": "22.742289"
    },
    "5943110035": {
        "name": "永效藥局",
        "phone": "(08)7960295",
        "address": "屏東縣高樹鄉司馬村長美路８３號",
        "lng": "120.609782",
        "lat": "22.848772"
    },
    "5943110044": {
        "name": "宏順藥局",
        "phone": "(08)7962136",
        "address": "屏東縣高樹鄉長榮村南昌路２－２號",
        "lng": "120.596308",
        "lat": "22.818448"
    },
    "5943110062": {
        "name": "永昌藥局",
        "phone": "(08)7956087",
        "address": "屏東縣高樹鄉產業路１６３號",
        "lng": "120.613285",
        "lat": "22.789632"
    },
    "5943120022": {
        "name": "何藥局",
        "phone": "(08)7836888",
        "address": "屏東縣萬巒鄉佳佐村民生路１２９號",
        "lng": "120.59879",
        "lat": "22.570192"
    },
    "5943130055": {
        "name": "和安藥局",
        "phone": "(08)7792647",
        "address": "屏東縣內埔鄉東勢村嘉應路２７－１號",
        "lng": "120.569745",
        "lat": "22.635592"
    },
    "5943130064": {
        "name": "長生藥局",
        "phone": "(08)7792121",
        "address": "屏東縣內埔鄉仁和路７號",
        "lng": "120.567976",
        "lat": "22.610961"
    },
    "5943130082": {
        "name": "健林藥局",
        "phone": "(08)7790635",
        "address": "屏東縣內埔鄉中興路１５７號",
        "lng": "120.568551",
        "lat": "22.611482"
    },
    "5943151027": {
        "name": "安泰藥局新埤店",
        "phone": "(08)7973793",
        "address": "屏東縣新埤鄉新華路１６３號",
        "lng": "120.551346",
        "lat": "22.470062"
    },
    "5943160017": {
        "name": "仁慧藥局",
        "phone": "(08)8780472",
        "address": "屏東縣枋寮鄉中山路１８１號",
        "lng": "120.59562",
        "lat": "22.365242"
    },
    "5943160026": {
        "name": "吉村藥局",
        "phone": "(08)8781593",
        "address": "屏東縣枋寮鄉安樂村中山路８５號",
        "lng": "120.598773",
        "lat": "22.362625"
    },
    "5943160035": {
        "name": "隆山藥局",
        "phone": "(08)8785700",
        "address": "屏東縣枋寮鄉安樂村中山路１１５－２號",
        "lng": "120.597768",
        "lat": "22.363421"
    },
    "5943012801": {
        "name": "瑞光藥局",
        "phone": "(08)7380002",
        "address": "屏東縣屏東市瑞光路二段２５０號",
        "lng": "120.507509",
        "lat": "22.678935"
    },
    "5943020036": {
        "name": "長庚中西藥局",
        "phone": "(08)7896626",
        "address": "屏東縣潮州鎮三共里朝昇路２３５號",
        "lng": "120.541864",
        "lat": "22.556154"
    },
    "5943020063": {
        "name": "大安藥局",
        "phone": "(08)7884500",
        "address": "屏東縣潮州鎮永春里光春路７１號",
        "lng": "120.537468",
        "lat": "22.54359"
    },
    "5943020125": {
        "name": "信安西藥局",
        "phone": "(08)7882176",
        "address": "屏東縣潮州鎮同榮里中山路７０號",
        "lng": "120.54153",
        "lat": "22.549735"
    },
    "5943020161": {
        "name": "惠安藥局",
        "phone": "(08)7882368",
        "address": "屏東縣潮州鎮新榮里新生路３１號",
        "lng": "120.537861",
        "lat": "22.54802"
    },
    "5943020170": {
        "name": "一心藥局",
        "phone": "(08)7889789",
        "address": "屏東縣潮州鎮育英路１７－１號",
        "lng": "120.542183",
        "lat": "22.548756"
    },
    "5943020241": {
        "name": "健銘藥局",
        "phone": "(08)7897631",
        "address": "屏東縣潮州鎮新生里新生路１４７號",
        "lng": "120.539948",
        "lat": "22.551551"
    },
    "5943020367": {
        "name": "安欣藥師藥局",
        "phone": "(08)7805759",
        "address": "屏東縣潮州鎮延平路一六八號",
        "lng": "120.540437",
        "lat": "22.555716"
    },
    "5943030023": {
        "name": "益福藥局",
        "phone": "(08)8338248",
        "address": "屏東縣東港鎮朝安里新生三路２１２－４號",
        "lng": "120.445273",
        "lat": "22.467775"
    },
    "5943030032": {
        "name": "振康藥師藥局",
        "phone": "(08)8352520",
        "address": "屏東縣東港鎮光復路二段１０１號",
        "lng": "120.453232",
        "lat": "22.466458"
    },
    "5943030103": {
        "name": "保生藥局",
        "phone": "(08)8322818",
        "address": "屏東縣東港鎮中山路５６號",
        "lng": "120.450505",
        "lat": "22.466736"
    },
    "5943030112": {
        "name": "怡仁藥局",
        "phone": "(08)8322159",
        "address": "屏東縣東港鎮頂中里中正路１０７號",
        "lng": "120.449885",
        "lat": "22.467056"
    },
    "5943040047": {
        "name": "聖鑫藥局",
        "phone": "(08)8891132",
        "address": "屏東縣恆春鎮中正路７３號",
        "lng": "120.744566",
        "lat": "22.003021"
    },
    "5943040074": {
        "name": "育誠藥局",
        "phone": "(08)8892782",
        "address": "屏東縣恆春鎮西門路１０號",
        "lng": "120.743211",
        "lat": "22.005829"
    },
    "5943050025": {
        "name": "博林藥局",
        "phone": "(08)7072876",
        "address": "屏東縣萬丹鄉社皮村大昌路４５８號",
        "lng": "120.470625",
        "lat": "22.615683"
    },
    "5943050034": {
        "name": "全安堂藥局",
        "phone": "(08)7772571",
        "address": "屏東縣萬丹鄉香社村中興路一段１５６號",
        "lng": "120.472627",
        "lat": "22.562278"
    },
    "5942020023": {
        "name": "醫聯藥局",
        "phone": "(07)6259873",
        "address": "高雄市岡山區前峰里公園西路３段１２５號",
        "lng": "120.284749",
        "lat": "22.793207"
    },
    "5942020050": {
        "name": "惠光西藥局",
        "phone": "(07)6212163",
        "address": "高雄市岡山區維仁路１４７號",
        "lng": "120.292549",
        "lat": "22.794806"
    },
    "5942020078": {
        "name": "協安大藥局",
        "phone": "(07)6252256",
        "address": "高雄市岡山區介壽西路１０號",
        "lng": "120.284498",
        "lat": "22.784585"
    },
    "5902111796": {
        "name": "力安藥師藥局",
        "phone": "(07)7918167",
        "address": "高雄市小港區桂陽路316號１樓",
        "lng": "120.352211",
        "lat": "22.582113"
    },
    "5942010081": {
        "name": "杏門藥局",
        "phone": "(07)7635781",
        "address": "高雄市鳳山區老爺里海洋二路１７８號",
        "lng": "120.348986",
        "lat": "22.613171"
    },
    "5942010125": {
        "name": "中央藥局",
        "phone": "(07)8217320",
        "address": "高雄市鳳山區五甲三路７１號",
        "lng": "120.32688",
        "lat": "22.592101"
    },
    "5942010214": {
        "name": "謝藥局",
        "phone": "(07)7226685",
        "address": "高雄市鳳山區南江街１２６號",
        "lng": "120.338576",
        "lat": "22.601395"
    },
    "5942010269": {
        "name": "大華藥局",
        "phone": "(07)7774881",
        "address": "高雄市鳳山區青年路二段４６６號",
        "lng": "120.35155",
        "lat": "22.644097"
    },
    "5942010312": {
        "name": "星輝藥局",
        "phone": "(07)7461830",
        "address": "高雄市鳳山區瑞竹路２０之５號",
        "lng": "120.366332",
        "lat": "22.624859"
    },
    "5942010321": {
        "name": "南億藥局",
        "phone": "(07)7105010",
        "address": "高雄市鳳山區光復路７４號",
        "lng": "120.3521",
        "lat": "22.629263"
    },
    "5942010349": {
        "name": "長英藥局",
        "phone": "(07)7805002",
        "address": "高雄市鳳山區八德路二段２６７號",
        "lng": "120.351945",
        "lat": "22.644789"
    },
    "5942010358": {
        "name": "護民藥局",
        "phone": "(07)7462525",
        "address": "高雄市鳳山區光遠路２０５號",
        "lng": "120.360901",
        "lat": "22.625565"
    },
    "5942010447": {
        "name": "健生大藥局",
        "phone": "(07)7131028",
        "address": "高雄市鳳山區五甲二路１８２號",
        "lng": "120.340832",
        "lat": "22.601772"
    },
    "5942010563": {
        "name": "一心堂藥局",
        "phone": "(07)8213971",
        "address": "高雄市鳳山區五甲二路５２３號",
        "lng": "120.332634",
        "lat": "22.595986"
    },
    "5942010643": {
        "name": "王藥局",
        "phone": "(07)7716581",
        "address": "高雄市鳳山區一甲里南江街１２９號",
        "lng": "120.338683",
        "lat": "22.601714"
    },
    "5942010787": {
        "name": "強生藥局",
        "phone": "(07)7468179",
        "address": "高雄市鳳山區中山西路１７５號",
        "lng": "120.350316",
        "lat": "22.627455"
    },
    "5942010812": {
        "name": "一仁藥局",
        "phone": "(07)7425004",
        "address": "高雄市鳳山區自由路２００號",
        "lng": "120.349523",
        "lat": "22.625619"
    },
    "5942010867": {
        "name": "鳳林藥局",
        "phone": "(07)7830767",
        "address": "高雄市鳳山區鳳林路１６６號",
        "lng": "120.374569",
        "lat": "22.622238"
    },
    "5902110066": {
        "name": "文祺藥局",
        "phone": "(07)8014066",
        "address": "高雄市小港區正苓里平治街１１２號",
        "lng": "120.35427",
        "lat": "22.567433"
    },
    "5902110093": {
        "name": "鳳明中西大藥局",
        "phone": "(07)8011846",
        "address": "高雄市小港區二苓路２４７號",
        "lng": "120.347739",
        "lat": "22.565341"
    },
    "5902110244": {
        "name": "億大藥局",
        "phone": "(07)8014958",
        "address": "高雄市小港區三苓里永義街１７１號",
        "lng": "120.348884",
        "lat": "22.566734"
    },
    "5902092410": {
        "name": "旺盛藥局",
        "phone": "(07)7512899",
        "address": "高雄市前鎮區永豐路１０８號",
        "lng": "120.333683",
        "lat": "22.606499"
    },
    "5902092492": {
        "name": "元生藥局",
        "phone": "(07)8156356",
        "address": "高雄市前鎮區鎮興路２２６號１樓",
        "lng": "120.311675",
        "lat": "22.59305"
    },
    "5902092554": {
        "name": "協和藥局",
        "phone": "(07)5377769",
        "address": "高雄市前鎮區中華五路９８３號",
        "lng": "120.306017",
        "lat": "22.60221"
    },
    "5902100033": {
        "name": "旗后藥局",
        "phone": "(07)5715838",
        "address": "高雄市旗津區中洲三路７１５號",
        "lng": "120.270513",
        "lat": "22.610957"
    },
    "5902100042": {
        "name": "千佑藥局",
        "phone": "(07)5712619",
        "address": "高雄市旗津區復興里中洲三路５１３號",
        "lng": "120.273632",
        "lat": "22.606076"
    },
    "5943010254": {
        "name": "大和藥局",
        "phone": "(08)7328052",
        "address": "屏東縣屏東市太平里中正路１６７－１號",
        "lng": "120.490535",
        "lat": "22.6778667"
    },
    "5942090052": {
        "name": "寶寶藥局",
        "phone": "(07)3510582",
        "address": "高雄市大社區神農里金龍路４１號",
        "lng": "120.354064",
        "lat": "22.728201"
    },
    "5942100071": {
        "name": "皇佳藥局",
        "phone": "(07)7312918",
        "address": "高雄市鳥松區仁美里高碼二路１２號",
        "lng": "120.389314",
        "lat": "22.657694"
    },
    "5942110077": {
        "name": "照安藥局",
        "phone": "(07)6113230",
        "address": "高雄市橋頭區橋南路５５號",
        "lng": "120.311723",
        "lat": "22.755791"
    },
    "5942121114": {
        "name": "吉暉藥局",
        "phone": "(07)6169393",
        "address": "高雄市燕巢區中興路１４號",
        "lng": "120.361757",
        "lat": "22.792642"
    },
    "5942140039": {
        "name": "和德藥局",
        "phone": "(07)6313928",
        "address": "高雄市阿蓮區清蓮里中山路８８號",
        "lng": "120.328416",
        "lat": "22.879006"
    },
    "5942140084": {
        "name": "惠聖中西藥局",
        "phone": "(07)6312582",
        "address": "高雄市阿蓮區清蓮里中山路１４號",
        "lng": "120.329122",
        "lat": "22.88057"
    },
    "5942140100": {
        "name": "慶德藥局",
        "phone": "(07)6312256",
        "address": "高雄市阿蓮區阿蓮里中正路５９０號",
        "lng": "120.32984",
        "lat": "22.880871"
    },
    "5942171043": {
        "name": "明正藥局",
        "phone": "(07)6922049",
        "address": "高雄市茄萣區茄萣路一段３９１號",
        "lng": "120.184189",
        "lat": "22.896841"
    },
    "5942050021": {
        "name": "資生藥局",
        "phone": "(07)6426254",
        "address": "高雄市林園區林園里忠義一街６號",
        "lng": "120.390335",
        "lat": "22.5034743"
    },
    "5942050085": {
        "name": "福安藥局",
        "phone": "(07)6438833",
        "address": "高雄市林園區東林里東林西路５１號",
        "lng": "120.394486",
        "lat": "22.504151"
    },
    "5942050129": {
        "name": "惠健大藥局",
        "phone": "(07)6414666",
        "address": "高雄市林園區東林里林園北路６０號",
        "lng": "120.39575",
        "lat": "22.504875"
    },
    "5942051279": {
        "name": "弘寶藥局",
        "phone": "(07)6433159",
        "address": "高雄市林園區鳳林路二段７５７之１號",
        "lng": "120.395769",
        "lat": "22.512971"
    },
    "5942060027": {
        "name": "福民藥局",
        "phone": "(07)7816570",
        "address": "高雄市大寮區鳳林三路４０８號之１",
        "lng": "120.396425",
        "lat": "22.603631"
    },
    "5942060054": {
        "name": "德恩藥局",
        "phone": "(07)6513778",
        "address": "高雄市大寮區義和路１９２號",
        "lng": "120.421502",
        "lat": "22.641"
    },
    "5942060152": {
        "name": "洋洋藥局",
        "phone": "(07)7034256",
        "address": "高雄市大寮區中庄里鳳屏一路５１２號",
        "lng": "120.39362",
        "lat": "22.636639"
    },
    "5942060278": {
        "name": "金發藥局",
        "phone": "(07)7862818",
        "address": "高雄市大寮區中興里鳳林四路２６８號",
        "lng": "120.383457",
        "lat": "22.619126"
    },
    "5942061720": {
        "name": "永康藥局",
        "phone": "(07)7862821",
        "address": "高雄市大寮區鳳林三路５２９號",
        "lng": "120.395233",
        "lat": "22.607356"
    },
    "5942070112": {
        "name": "陳西藥局",
        "phone": "(07)6515858",
        "address": "高雄市大樹區久堂里中興街６０號",
        "lng": "120.419584",
        "lat": "22.652963"
    },
    "5942080010": {
        "name": "仁信藥局",
        "phone": "(07)3716115",
        "address": "高雄市仁武區仁武里中正路１４６號",
        "lng": "120.350649",
        "lat": "22.702149"
    },
    "5942080038": {
        "name": "日建藥局",
        "phone": "(07)3713497",
        "address": "高雄市仁武區灣內里仁忠路３２號",
        "lng": "120.356687",
        "lat": "22.676381"
    },
    "5942020130": {
        "name": "建成藥局",
        "phone": "(07)6210458",
        "address": "高雄市岡山區台上里大仁路９７號",
        "lng": "120.301646",
        "lat": "22.805299"
    },
    "5942020176": {
        "name": "平和藥局",
        "phone": "(07)6212592",
        "address": "高雄市岡山區岡山路２６８號",
        "lng": "120.296095",
        "lat": "22.792919"
    },
    "5942020185": {
        "name": "鴻興大藥局",
        "phone": "(07)6259903",
        "address": "高雄市岡山區中華路１３６號",
        "lng": "120.288216",
        "lat": "22.79476"
    },
    "5942020265": {
        "name": "建元藥局",
        "phone": "(07)6216672",
        "address": "高雄市岡山區大仁北路１０４號",
        "lng": "120.301763",
        "lat": "22.800708"
    },
    "5942021486": {
        "name": "人人藥局",
        "phone": "(07)6230678",
        "address": "高雄市岡山區維新東街２號",
        "lng": "120.298546",
        "lat": "22.793806"
    },
    "5942030056": {
        "name": "賜安藥局",
        "phone": "(07)6612057",
        "address": "高雄市旗山區大德里中山路１１號",
        "lng": "120.481929",
        "lat": "22.885274"
    },
    "5942030092": {
        "name": "天明藥局",
        "phone": "(07)6621311",
        "address": "高雄市旗山區大同路至誠巷１５號",
        "lng": "120.4842409",
        "lat": "22.8838272"
    },
    "5942030181": {
        "name": "良安藥局",
        "phone": "(07)6617532",
        "address": "高雄市旗山區旗南一路５３號",
        "lng": "120.480048",
        "lat": "22.885396"
    },
    "5942030234": {
        "name": "賽珠藥局",
        "phone": "(07)6616068",
        "address": "高雄市旗山區新山里延平一路４９６號",
        "lng": "120.483235",
        "lat": "22.890043"
    },
    "5942031357": {
        "name": "錦昌藥局",
        "phone": "(07)6613129",
        "address": "高雄市旗山區大同街４號",
        "lng": "120.483803",
        "lat": "22.88333"
    },
    "5942040061": {
        "name": "健民藥局",
        "phone": "(07)6812796",
        "address": "高雄市美濃區泰安里中正路一段３１－１號",
        "lng": "120.541594",
        "lat": "22.901234"
    },
    "5942040089": {
        "name": "進安堂藥局",
        "phone": "(07)6812741",
        "address": "高雄市美濃區忠孝路１段３７２號",
        "lng": "120.526056",
        "lat": "22.876918"
    },
    "5942040178": {
        "name": "志昇藥局",
        "phone": "(07)6813930",
        "address": "高雄市美濃區中壇里中興路一段５５７號",
        "lng": "120.534566",
        "lat": "22.885784"
    },
    "5942041326": {
        "name": "萬安藥局",
        "phone": "(07)6812332",
        "address": "高雄市美濃區成功路２１９－１號",
        "lng": "120.549254",
        "lat": "22.892799"
    },
    "5942010947": {
        "name": "銘豐大藥局",
        "phone": "(07)7636795",
        "address": "高雄市鳳山區海洋二路１７５號",
        "lng": "120.348808",
        "lat": "22.61342"
    },
    "5942010974": {
        "name": "陳明仁藥局",
        "phone": "(07)7762551",
        "address": "高雄市鳳山區文衡路１２３－３號",
        "lng": "120.356315",
        "lat": "22.637648"
    },
    "5942011211": {
        "name": "永吉藥局",
        "phone": "(07)7018047",
        "address": "高雄市鳳山區瑞興路４０２之１號",
        "lng": "120.369483",
        "lat": "22.631011"
    },
    "5942011275": {
        "name": "壹家二益藥局",
        "phone": "(07)7761648",
        "address": "高雄市鳳山區文德里文衡路４００號一樓",
        "lng": "120.351968",
        "lat": "22.640706"
    },
    "5942011373": {
        "name": "誠大藥局",
        "phone": "(07)7482246",
        "address": "高雄市鳳山區中和里青年路１段３０５號",
        "lng": "120.349126",
        "lat": "22.62564"
    },
    "5942011480": {
        "name": "頂好藥師藥局",
        "phone": "(07)7430834",
        "address": "高雄市鳳山區光華東路１５號",
        "lng": "120.356467",
        "lat": "22.619226"
    },
    "5942011524": {
        "name": "中華藥局",
        "phone": "(07)7472853",
        "address": "高雄市鳳山區中山路１４２號",
        "lng": "120.35717",
        "lat": "22.624482"
    },
    "5942011579": {
        "name": "建保藥局",
        "phone": "(07)7762100",
        "address": "高雄市鳳山區八德路２８９號",
        "lng": "120.355293",
        "lat": "22.638558"
    },
    "5942013260": {
        "name": "辰好藥局",
        "phone": "(07)7027064",
        "address": "高雄市鳳山區中山東路２８１號",
        "lng": "120.37562",
        "lat": "22.626475"
    },
    "5942013331": {
        "name": "泰安藥局",
        "phone": "(07)7037838",
        "address": "高雄市鳳山區仁愛路６－１號",
        "lng": "120.373132",
        "lat": "22.622599"
    },
    "5902057126": {
        "name": "民安藥局",
        "phone": "(07)3121381",
        "address": "高雄市三民區嫩江街７０號",
        "lng": "120.298528",
        "lat": "22.642826"
    },
    "5902060025": {
        "name": "連作藥局",
        "phone": "(07)2154716",
        "address": "高雄市新興區大同一路２０３－１號",
        "lng": "120.300311",
        "lat": "22.628501"
    },
    "5902060132": {
        "name": "成益藥局",
        "phone": "(07)2265015",
        "address": "高雄市新興區德望里復興一路４之２號",
        "lng": "120.308092",
        "lat": "22.627948"
    },
    "5902060150": {
        "name": "永明藥局",
        "phone": "(07)2619832",
        "address": "高雄市新興區仁智街２２３號",
        "lng": "120.302699",
        "lat": "22.62084"
    },
    "5902050681": {
        "name": "全信藥局",
        "phone": "(07)3428155",
        "address": "高雄市三民區鼎中里鼎中路１０６號",
        "lng": "120.319278",
        "lat": "22.660841"
    },
    "5902050770": {
        "name": "仁生藥局",
        "phone": "(07)3118765",
        "address": "高雄市三民區民享里熱河二街７８號",
        "lng": "120.300571",
        "lat": "22.644306"
    },
    "5902050798": {
        "name": "友泰藥局",
        "phone": "(07)3125236",
        "address": "高雄市三民區中和街１６９號",
        "lng": "120.286785",
        "lat": "22.6388"
    },
    "5902050903": {
        "name": "皇安藥局",
        "phone": "(07)3866779",
        "address": "高雄市三民區九如一路４６１號",
        "lng": "120.329622",
        "lat": "22.638651"
    },
    "5902050912": {
        "name": "雅信藥局",
        "phone": "(07)3830821",
        "address": "高雄市三民區鼎山街３２６號",
        "lng": "120.321486",
        "lat": "22.65769"
    },
    "5902050958": {
        "name": "安信藥局",
        "phone": "(07)3825577",
        "address": "高雄市三民區灣中里鼎山街６６５號",
        "lng": "120.316392",
        "lat": "22.649531"
    },
    "5902051642": {
        "name": "安寧藥局",
        "phone": "(07)3217585",
        "address": "高雄市三民區嫩江街３９號",
        "lng": "120.298146",
        "lat": "22.642083"
    },
    "5902051786": {
        "name": "億生藥局",
        "phone": "(07)2873436",
        "address": "高雄市三民區南台路２００號",
        "lng": "120.298158",
        "lat": "22.637062"
    },
    "5902051866": {
        "name": "久大藥局",
        "phone": "(07)3858116",
        "address": "高雄市三民區本文里立忠路３２號１Ｆ",
        "lng": "120.325266",
        "lat": "22.653181"
    },
    "5902040096": {
        "name": "宗隆藥局",
        "phone": "(07)3622203",
        "address": "高雄市楠梓區右昌街２２０號",
        "lng": "120.289317",
        "lat": "22.711799"
    },
    "5902040158": {
        "name": "黃藥局",
        "phone": "(07)3515700",
        "address": "高雄市楠梓區惠楠里建楠路１８６號",
        "lng": "120.326103",
        "lat": "22.727157"
    },
    "5902040238": {
        "name": "筆秀藥局",
        "phone": "(07)3622412",
        "address": "高雄市楠梓區青埔街１５２號",
        "lng": "120.322197",
        "lat": "22.729561"
    },
    "5902040274": {
        "name": "千惠藥局",
        "phone": "(07)3631268",
        "address": "高雄市楠梓區和光街１８１號",
        "lng": "120.295874",
        "lat": "22.708866"
    },
    "5902040532": {
        "name": "聯亞藥局",
        "phone": "(07)3638387",
        "address": "高雄市揇梓區軍校路７１０號",
        "lng": "120.2929685",
        "lat": "22.7078159"
    },
    "5902041226": {
        "name": "正人藥師藥局",
        "phone": "(07)3652942",
        "address": "高雄市楠梓區和昌里軍校路６７２號",
        "lng": "120.293045",
        "lat": "22.707074"
    },
    "5902042269": {
        "name": "常禾藥局",
        "phone": "(07)3537431",
        "address": "高雄市楠梓區常德路３３３號一樓",
        "lng": "120.337193",
        "lat": "22.737498"
    },
    "5902050092": {
        "name": "明曜藥局",
        "phone": "(07)3803807",
        "address": "高雄市三民區澄和路９６號",
        "lng": "120.34406",
        "lat": "22.644806"
    },
    "5902050154": {
        "name": "杏安藥局",
        "phone": "(07)3111606",
        "address": "高雄市三民區十全一路91 號",
        "lng": "120.310827",
        "lat": "22.644748"
    },
    "5902050298": {
        "name": "瑞鶴藥局",
        "phone": "(07)3862757",
        "address": "高雄市三民區寶德里義德路２５號",
        "lng": "120.335194",
        "lat": "22.643009"
    },
    "5902050350": {
        "name": "日星藥局",
        "phone": "(07)3845188",
        "address": "高雄市三民區寶龍里惠德街３８號",
        "lng": "120.324091",
        "lat": "22.647405"
    },
    "5902050378": {
        "name": "安成藥局",
        "phone": "(07)3229295",
        "address": "高雄市三民區察哈爾二街６３號",
        "lng": "120.300957",
        "lat": "22.647659"
    },
    "5902050387": {
        "name": "合祥藥局",
        "phone": "(07)3830180",
        "address": "高雄市三民區本元里昭良街６８號",
        "lng": "120.332504",
        "lat": "22.652931"
    },
    "5902051106": {
        "name": "順發藥局",
        "phone": "(07)3832329",
        "address": "高雄市三民區建工路４９６號",
        "lng": "120.326555",
        "lat": "22.651203"
    },
    "5902051222": {
        "name": "利民藥局",
        "phone": "(07)3125436",
        "address": "高雄市三民區孝順街７４號",
        "lng": "120.312813",
        "lat": "22.643095"
    },
    "5902051240": {
        "name": "明皇藥局",
        "phone": "(07)3860121",
        "address": "高雄市三民區寶國里義華路１８１號",
        "lng": "120.339945",
        "lat": "22.642757"
    },
    "5902051259": {
        "name": "昱林藥局",
        "phone": "(07)3863286",
        "address": "高雄市三民區永年街６７號",
        "lng": "120.317701",
        "lat": "22.64177"
    },
    "5902110299": {
        "name": "大裕藥局",
        "phone": "(07)8211467",
        "address": "高雄市小港區小港里小港路２６１號",
        "lng": "120.335862",
        "lat": "22.563864"
    },
    "5902110324": {
        "name": "新源興藥局",
        "phone": "(07)8015567",
        "address": "高雄市小港區宏平路２９８號",
        "lng": "120.361098",
        "lat": "22.570166"
    },
    "5902110422": {
        "name": "臨生藥局",
        "phone": "(07)8711290",
        "address": "高雄市小港區鳳鳴路１４６－４號",
        "lng": "120.358557",
        "lat": "22.514672"
    },
    "5902110593": {
        "name": "慈林藥局",
        "phone": "(07)8718087",
        "address": "高雄市小港區鳳林路９３號",
        "lng": "120.34636",
        "lat": "22.526346"
    },
    "5902111661": {
        "name": "康乃爾藥局",
        "phone": "(07)8026291",
        "address": "高雄市小港區漢民路４１３號２樓",
        "lng": "120.357745",
        "lat": "22.56701"
    },
    "5902111698": {
        "name": "康莊藥局",
        "phone": "(07)8063384",
        "address": "高雄市小港區康莊路６９號一樓",
        "lng": "120.355961",
        "lat": "22.568533"
    },
    "5902090103": {
        "name": "文仁藥局",
        "phone": "(07)8413116",
        "address": "高雄市前鎮區明正里草衙二路４６０號",
        "lng": "120.322957",
        "lat": "22.579856"
    },
    "5902090121": {
        "name": "意文藥局",
        "phone": "(07)7226570",
        "address": "高雄市前鎮區瑞華里武營路１８３號",
        "lng": "120.337394",
        "lat": "22.60991"
    },
    "5902090167": {
        "name": "勝惠藥局",
        "phone": "(07)3354766",
        "address": "高雄市前鎮區忠孝里三多三路７１號",
        "lng": "120.312202",
        "lat": "22.616298"
    },
    "5902090185": {
        "name": "一統藥局",
        "phone": "(07)7710633",
        "address": "高雄市前鎮區瑞崗里瑞和街２５１號",
        "lng": "120.326798",
        "lat": "22.605522"
    },
    "5902090363": {
        "name": "八仙藥局",
        "phone": "(07)7270001",
        "address": "高雄市前鎮區瑞隆路２５１號",
        "lng": "120.333099",
        "lat": "22.60553"
    },
    "5902090765": {
        "name": "家安大藥局",
        "phone": "(07)7137711",
        "address": "高雄市前鎮區崗山南街３４２巷２１號",
        "lng": "120.332275",
        "lat": "22.602104"
    },
    "5902090827": {
        "name": "博平藥局",
        "phone": "(07)8311814",
        "address": "高雄市前鎮區草衙二路３７７號",
        "lng": "120.32245",
        "lat": "22.578078"
    },
    "5902090970": {
        "name": "民光藥局",
        "phone": "(07)3335362",
        "address": "高雄市前鎮區林森三路４８號",
        "lng": "120.307606",
        "lat": "22.611112"
    },
    "5902092296": {
        "name": "迎廣藥局",
        "phone": "(07)3321466",
        "address": "高雄市前鎮區林森三路１５０號２樓",
        "lng": "120.308862",
        "lat": "22.613571"
    },
    "5902092321": {
        "name": "彥芳藥局",
        "phone": "(07)3302007",
        "address": "高雄市前鎮區長江街６５號１樓",
        "lng": "120.315586",
        "lat": "22.609927"
    },
    "5902092358": {
        "name": "惠芳藥局",
        "phone": "(07)5370650",
        "address": "高雄市前鎮區一心一路４８６號",
        "lng": "120.314136",
        "lat": "22.609948"
    },
    "5902080741": {
        "name": "天新藥局",
        "phone": "(07)3342754",
        "address": "高雄市苓雅區華堂里林森二路１－３號",
        "lng": "120.308235",
        "lat": "22.615486"
    },
    "5902080803": {
        "name": "功安中西大藥局",
        "phone": "(07)7215949",
        "address": "高雄市苓雅區三多二路２９１號",
        "lng": "120.319502",
        "lat": "22.618618"
    },
    "5902080858": {
        "name": "福興藥局",
        "phone": "(07)3331862",
        "address": "高雄市苓雅區成功一路５２號",
        "lng": "120.298285",
        "lat": "22.613124"
    },
    "5902080894": {
        "name": "苓中藥局",
        "phone": "(07)3311667",
        "address": "高雄市苓雅區永平路６４號",
        "lng": "120.293865",
        "lat": "22.615604"
    },
    "5902081015": {
        "name": "明群藥局",
        "phone": "(07)7254953",
        "address": "高雄市苓雅區英明路５４號",
        "lng": "120.325279",
        "lat": "22.612759"
    },
    "5902081328": {
        "name": "東信藥局",
        "phone": "(07)7613309",
        "address": "高雄市苓雅區三多一路１８９號",
        "lng": "120.331317",
        "lat": "22.622575"
    },
    "5902083457": {
        "name": "順一藥局",
        "phone": "(07)3330011",
        "address": "高雄市苓雅區田西里成功一路２１０號",
        "lng": "120.296852",
        "lat": "22.616963"
    },
    "5902083591": {
        "name": "晨安藥局",
        "phone": "(07)3365463",
        "address": "高雄市苓雅區興中一路１６０號",
        "lng": "120.309591",
        "lat": "22.617533"
    },
    "5902084749": {
        "name": "琉璃光藥師藥局",
        "phone": "(07)7160930",
        "address": "高雄市苓雅區四維一路２９２號之一樓",
        "lng": "120.324381",
        "lat": "22.624204"
    },
    "5902084856": {
        "name": "聖安藥局",
        "phone": "(07)7716813",
        "address": "高雄市苓雅區建華街３０３號",
        "lng": "120.323819",
        "lat": "22.61799"
    },
    "5902090032": {
        "name": "全國大藥局",
        "phone": "(07)3345775",
        "address": "高雄市前鎮區三多二路４０３號１樓",
        "lng": "120.316606",
        "lat": "22.617774"
    },
    "5902090087": {
        "name": "久億藥局",
        "phone": "(07)7619333",
        "address": "高雄市前鎮區保泰路３５１號",
        "lng": "120.334078",
        "lat": "22.602888"
    },
    "5902080036": {
        "name": "瑞林藥局",
        "phone": "(07)3312146",
        "address": "高雄市苓雅區興中一路２８２號",
        "lng": "120.305586",
        "lat": "22.616197"
    },
    "5902080287": {
        "name": "佳鴻中西藥局",
        "phone": "(07)7497103",
        "address": "高雄市苓雅區文昌路１１號",
        "lng": "120.338422",
        "lat": "22.631002"
    },
    "5902080312": {
        "name": "正和藥局",
        "phone": "(07)2265377",
        "address": "高雄市苓雅區福建街３６２號",
        "lng": "120.313825",
        "lat": "22.6266"
    },
    "5902080376": {
        "name": "政德藥局",
        "phone": "(07)7114371",
        "address": "高雄市苓雅區正大里武廟路２９號",
        "lng": "120.331731",
        "lat": "22.629953"
    },
    "5902080465": {
        "name": "廣德泰藥局",
        "phone": "(07)3340769",
        "address": "高雄市苓雅區苓雅二路７６號",
        "lng": "120.299724",
        "lat": "22.617616"
    },
    "5902080474": {
        "name": "弘宗藥局",
        "phone": "(07)7211088",
        "address": "高雄市苓雅區武智街２號",
        "lng": "120.335649",
        "lat": "22.623034"
    },
    "5902080518": {
        "name": "福海藥局",
        "phone": "(07)7618855",
        "address": "高雄市苓雅區武慶三路５８號",
        "lng": "120.331959",
        "lat": "22.619578"
    },
    "5902080527": {
        "name": "三和藥局",
        "phone": "(07)7220808",
        "address": "高雄市苓雅區廣州二街１１７號",
        "lng": "120.319313",
        "lat": "22.618206"
    },
    "5902080545": {
        "name": "柏松藥局",
        "phone": "(07)7119786",
        "address": "高雄市苓雅區輔仁路１７５號",
        "lng": "120.333188",
        "lat": "22.630646"
    },
    "5902053833": {
        "name": "建銘藥局",
        "phone": "(07)3133460",
        "address": "高雄市三民區吉林街２６２號",
        "lng": "120.306817",
        "lat": "22.648181"
    },
    "5902054689": {
        "name": "善全藥局",
        "phone": "(07)3960269",
        "address": "高雄市三民區義華路３９１號",
        "lng": "120.33319",
        "lat": "22.643387"
    },
    "5902054741": {
        "name": "文安學藥局",
        "phone": "(07)3809400",
        "address": "高雄市三民區寶業里覺民路６２號",
        "lng": "120.342713",
        "lat": "22.639129"
    },
    "5902055480": {
        "name": "建保藥局",
        "phone": "(07)3920433",
        "address": "高雄市三民區陽明路４１３號",
        "lng": "120.342444",
        "lat": "22.645666"
    },
    "5902056692": {
        "name": "大樂藥局",
        "phone": "(07)3501052",
        "address": "高雄市三民區明誠二路１６號一樓",
        "lng": "120.315298",
        "lat": "22.659948"
    },
    "5902056754": {
        "name": "大家藥局",
        "phone": "(07)3107632",
        "address": "高雄市三民區鼎中路２２９號１樓",
        "lng": "120.319104",
        "lat": "22.664209"
    },
    "5902056825": {
        "name": "新正興藥局",
        "phone": "(07)3892646",
        "address": "高雄市三民區正興路１００號",
        "lng": "120.320546",
        "lat": "22.646108"
    },
    "5902050412": {
        "name": "春仁藥局",
        "phone": "(07)3962341",
        "address": "高雄市三民區覺民路２２５號",
        "lng": "120.305551",
        "lat": "22.637383"
    },
    "5902050467": {
        "name": "人禾藥局",
        "phone": "(07)3215681",
        "address": "高雄市三民區達仁里九如二路３２４號",
        "lng": "120.30357",
        "lat": "22.641375"
    },
    "5902050565": {
        "name": "澄和藥局",
        "phone": "(07)3923111",
        "address": "高雄市三民區澄和路６６號",
        "lng": "120.344503",
        "lat": "22.644736"
    },
    "5902050592": {
        "name": "建昌藥局",
        "phone": "(07)3232356",
        "address": "高雄市三民區十全一路１０５號１樓",
        "lng": "120.310519",
        "lat": "22.644774"
    },
    "5902050636": {
        "name": "嘉益藥局",
        "phone": "(07)3110157",
        "address": "高雄市三民區重慶街３０號",
        "lng": "120.302003",
        "lat": "22.642227"
    },
    "5902030205": {
        "name": "果貿藥局",
        "phone": "(07)5852825",
        "address": "高雄市左營區果峰街２２號",
        "lng": "120.288358",
        "lat": "22.670632"
    },
    "5902030269": {
        "name": "立文藥局",
        "phone": "(07)5572899",
        "address": "高雄市左營區立文路５４號",
        "lng": "120.305805",
        "lat": "22.664576"
    },
    "5902030287": {
        "name": "慈德藥局",
        "phone": "(07)3416212",
        "address": "高雄市左營區重愛路５３號",
        "lng": "120.318646",
        "lat": "22.683076"
    },
    "5902030410": {
        "name": "重仁藥局",
        "phone": "(07)5824083",
        "address": "高雄市左營區左營大路４０８號",
        "lng": "120.293472",
        "lat": "22.687253"
    },
    "5902030634": {
        "name": "有機藥局",
        "phone": "(07)3596429",
        "address": "高雄市左營區榮耀街３號",
        "lng": "120.321599",
        "lat": "22.679346"
    },
    "5902031999": {
        "name": "平安藥局",
        "phone": "(07)5833688",
        "address": "高雄市左營區中華一路５之１號",
        "lng": "120.286872",
        "lat": "22.669641"
    },
    "5902040041": {
        "name": "橘井藥局",
        "phone": "(07)3511869",
        "address": "高雄市楠梓區楠梓路１２９號",
        "lng": "120.328582",
        "lat": "22.730256"
    },
    "5902040050": {
        "name": "富翔藥局",
        "phone": "(07)3516365",
        "address": "高雄市楠梓區常德路３０７號",
        "lng": "120.336988",
        "lat": "22.73691"
    },
    "5902010016": {
        "name": "健康藥局",
        "phone": "(07)5510738",
        "address": "高雄市鹽埕區大仁路１０２號",
        "lng": "120.284285",
        "lat": "22.625983"
    },
    "5902010025": {
        "name": "南京藥局",
        "phone": "(07)5514652",
        "address": "高雄市鹽埕區建國四路３８７號",
        "lng": "120.283992",
        "lat": "22.632791"
    },
    "5902010132": {
        "name": "宏恩藥局",
        "phone": "(07)5211318",
        "address": "高雄市鹽埕區教仁里瀨南街１３３號",
        "lng": "120.282344",
        "lat": "22.624719"
    },
    "5902011291": {
        "name": "長庚藥局",
        "phone": "(07)5513436",
        "address": "高雄市鹽埕區五福四路１６３號一樓",
        "lng": "120.283367",
        "lat": "22.623469"
    },
    "5902020012": {
        "name": "永松藥局",
        "phone": "(07)5810657",
        "address": "高雄市鼓山區鼓山三路１３０－１５號",
        "lng": "120.280173",
        "lat": "22.664536"
    },
    "5902021153": {
        "name": "世和藥局",
        "phone": "(07)5522566",
        "address": "高雄市鼓山區華豐里華夏路１９５號",
        "lng": "120.295891",
        "lat": "22.669356"
    },
    "5902021233": {
        "name": "崧柏藥局",
        "phone": "(07)5542027",
        "address": "高雄市鼓山區華榮路５４３號",
        "lng": "120.293653",
        "lat": "22.669689"
    },
    "5902021242": {
        "name": "快安藥局",
        "phone": "(07)5514090",
        "address": "高雄市鼓山區濱海一路３２號",
        "lng": "120.272245",
        "lat": "22.620041"
    },
    "5902021331": {
        "name": "文山藥局",
        "phone": "(07)5315681",
        "address": "高雄市鼓山區鼓山二路１６６之８之９號",
        "lng": "120.28097",
        "lat": "22.636999"
    },
    "5902021377": {
        "name": "藍玉藥局",
        "phone": "(07)5837528",
        "address": "高雄市鼓山區鼓峰里九如四路２００２號",
        "lng": "120.28608",
        "lat": "22.667741"
    },
    "5902022650": {
        "name": "恆生藥局",
        "phone": "(07)5616156",
        "address": "高雄市鼓山區臨海二路１３號",
        "lng": "120.274349",
        "lat": "22.621459"
    },
    "5902030063": {
        "name": "紅心藥局",
        "phone": "(07)3416697",
        "address": "高雄市左營區崇德路２５５號",
        "lng": "120.30412",
        "lat": "22.675352"
    },
    "5902030090": {
        "name": "宏仁藥局",
        "phone": "(07)5817895",
        "address": "高雄市左營區左營大路３９０號",
        "lng": "120.293207",
        "lat": "22.687017"
    },
    "5902030125": {
        "name": "元美藥局",
        "phone": "(07)5821226",
        "address": "高雄市左營區路東里部後街２６號",
        "lng": "120.288026",
        "lat": "22.684321"
    },
    "5921030127": {
        "name": "平安藥局",
        "phone": "(06)2292789",
        "address": "臺南市中西區永華路一段２３６號",
        "lng": "120.190856",
        "lat": "22.988519"
    },
    "5921030136": {
        "name": "發育藥局",
        "phone": "(06)2215896",
        "address": "臺南市中西區海安路１段２０５號１樓",
        "lng": "120.195684",
        "lat": "22.99262"
    },
    "5921030234": {
        "name": "永祥藥局",
        "phone": "(06)2212163",
        "address": "臺南市中西區民權路三段２０４號",
        "lng": "120.1948684",
        "lat": "22.997832"
    },
    "5921030289": {
        "name": "星宗藥局",
        "phone": "(06)2223453",
        "address": "臺南市中西區新安里大勇街３７號",
        "lng": "120.19456",
        "lat": "22.989446"
    },
    "5921030298": {
        "name": "銘豐藥局",
        "phone": "(06)2592517",
        "address": "臺南市中西區西賢一街４５號１樓",
        "lng": "120.177564",
        "lat": "23.000116"
    },
    "5921032069": {
        "name": "康乃爾藥局",
        "phone": "(06)2267917",
        "address": "臺南市中西區成功路３２１號",
        "lng": "120.200371",
        "lat": "22.999853"
    },
    "5921010447": {
        "name": "宏荏藥局",
        "phone": "(06)2684725",
        "address": "臺南市東區崇學里崇明街１１街５２巷２號",
        "lng": "120.2231328",
        "lat": "22.9763258"
    },
    "5921010652": {
        "name": "良泰藥局",
        "phone": "(06)2676256",
        "address": "臺南市東區仁和里仁和路１１７之１號",
        "lng": "120.233754",
        "lat": "22.970442"
    },
    "5941280141": {
        "name": "歐美藥師藥局",
        "phone": "(06)3308010",
        "address": "臺南市歸仁區後市里民權北路６８號",
        "lng": "120.288278",
        "lat": "22.969266"
    },
    "5941281282": {
        "name": "仁銨藥局",
        "phone": "(06)3304861",
        "address": "臺南市歸仁區中山路一段３２２號",
        "lng": "120.301953",
        "lat": "22.966008"
    },
    "5941101092": {
        "name": "慈慧藥局",
        "phone": "(06)6621976",
        "address": "臺南市後壁區菁豐里６８之２號",
        "lng": "120.36395",
        "lat": "23.384863"
    },
    "5941110019": {
        "name": "豐源中西藥局",
        "phone": "(06)6802615",
        "address": "臺南市東山區東中里達雲路１段３５號",
        "lng": "120.403952",
        "lat": "23.32204"
    },
    "5941110046": {
        "name": "青山藥局",
        "phone": "(06)6802740",
        "address": "臺南市東山區東中里中興路２３號",
        "lng": "120.403193",
        "lat": "23.322575"
    },
    "5941120015": {
        "name": "楊生藥局",
        "phone": "(06)6891723",
        "address": "臺南市下營區中山路一段９０號",
        "lng": "120.263045",
        "lat": "23.235207"
    },
    "5940030156": {
        "name": "瑞益藥局",
        "phone": "(05)2641439",
        "address": "嘉義縣大林鎮東林里瑞德路２號",
        "lng": "120.455969",
        "lat": "23.605056"
    },
    "5940040045": {
        "name": "七星藥局",
        "phone": "(05)2261977",
        "address": "嘉義縣民雄鄉東榮村中樂路１６號",
        "lng": "120.431281",
        "lat": "23.556429"
    },
    "5940040063": {
        "name": "昇平藥局",
        "phone": "(05)2206835",
        "address": "嘉義縣民雄鄉大崎村十四甲１８－７號",
        "lng": "120.466005",
        "lat": "23.506976"
    },
    "5940040072": {
        "name": "三和藥局",
        "phone": "(05)2262488",
        "address": "嘉義縣民雄鄉中樂村中樂路５３號",
        "lng": "120.430219",
        "lat": "23.556035"
    },
    "5940040081": {
        "name": "惠民藥局",
        "phone": "(05)2211466",
        "address": "嘉義縣民雄鄉福樂村埤角１０２號",
        "lng": "120.441332",
        "lat": "23.525436"
    },
    "5939020082": {
        "name": "惠生大藥局",
        "phone": "(05)5972478",
        "address": "雲林縣斗南鎮中天里文元街５０號",
        "lng": "120.477616",
        "lat": "23.675438"
    },
    "5939020091": {
        "name": "全安藥局",
        "phone": "(05)5965255",
        "address": "雲林縣斗南鎮中天里中正路１２３號",
        "lng": "120.478307",
        "lat": "23.676548"
    },
    "5939020108": {
        "name": "景昇藥局",
        "phone": "(05)5971326",
        "address": "雲林縣斗南鎮興仁路２號",
        "lng": "120.481204",
        "lat": "23.674202"
    },
    "5939020153": {
        "name": "佳恩中西藥局",
        "phone": "(05)5975539",
        "address": "雲林縣斗南鎮南昌里新興街２０５號",
        "lng": "120.477109",
        "lat": "23.674066"
    },
    "5939020171": {
        "name": "仁安堂藥局",
        "phone": "(05)5952020",
        "address": "雲林縣斗南鎮南昌里文元街４３號",
        "lng": "120.477837",
        "lat": "23.675346"
    },
    "5939021294": {
        "name": "玲津藥局",
        "phone": "(05)5972889",
        "address": "雲林縣斗南鎮中山路１７之２號",
        "lng": "120.480912",
        "lat": "23.673005"
    },
    "5921010661": {
        "name": "建龍藥局",
        "phone": "(06)2683998",
        "address": "臺南市東區自強里中華東路二段２５７號",
        "lng": "120.231395",
        "lat": "22.983153"
    },
    "5921010689": {
        "name": "億安大藥局",
        "phone": "(06)2159881",
        "address": "臺南市東區大福里大同路２段２６５號",
        "lng": "120.2145",
        "lat": "22.974861"
    },
    "5921010705": {
        "name": "華興藥局",
        "phone": "(06)2683757",
        "address": "臺南市東區崇善路５６２號",
        "lng": "120.230198",
        "lat": "22.970757"
    },
    "5921010947": {
        "name": "崇安藥師藥局",
        "phone": "(06)3350717",
        "address": "臺南市東區龍山里崇學路２８７號",
        "lng": "120.225978",
        "lat": "22.982965"
    },
    "5921012049": {
        "name": "小太陽藥局",
        "phone": "(06)2099858",
        "address": "臺南市東區東光里東平路１３號",
        "lng": "120.233565",
        "lat": "22.994695"
    },
    "5921012094": {
        "name": "王瑞敏藥師藥局",
        "phone": "(06)2896888",
        "address": "臺南市東區崇德路７３９號",
        "lng": "120.227682",
        "lat": "22.968014"
    },
    "5941121110": {
        "name": "健安藥局",
        "phone": "(06)6790417",
        "address": "臺南市下營區後街里中正北路７３號１樓",
        "lng": "120.261781",
        "lat": "23.236841"
    },
    "5941131161": {
        "name": "竹軒大藥局",
        "phone": "(06)6982258",
        "address": "臺南市六甲區甲南里民生街１５８號",
        "lng": "120.353288",
        "lat": "23.230007"
    },
    "5940040170": {
        "name": "健安藥局",
        "phone": "(05)2211797",
        "address": "嘉義縣民雄鄉興南村頭橋４５號",
        "lng": "120.438971",
        "lat": "23.523364"
    },
    "5940040205": {
        "name": "神輝中西藥局",
        "phone": "(05)2263633",
        "address": "嘉義縣民雄鄉東榮村民生路１２號",
        "lng": "120.431075",
        "lat": "23.556672"
    },
    "5940040232": {
        "name": "鈞安藥局",
        "phone": "(05)2218622",
        "address": "嘉義縣民雄鄉山中村１８７之５號",
        "lng": "120.410342",
        "lat": "23.518334"
    },
    "5940040349": {
        "name": "正道藥局",
        "phone": "(05)2268345",
        "address": "嘉義縣民雄鄉中樂村復興路３８號",
        "lng": "120.430376",
        "lat": "23.557061"
    },
    "5940041364": {
        "name": "大明藥局",
        "phone": "(05)2060640",
        "address": "嘉義縣民雄鄉西安路２５號",
        "lng": "120.426771",
        "lat": "23.556613"
    },
    "5940041435": {
        "name": "嘉方藥局",
        "phone": "(05)2066747",
        "address": "嘉義縣民雄鄉中樂村昇平路５８號",
        "lng": "120.430256",
        "lat": "23.557806"
    },
    "5940041515": {
        "name": "福樂藥局",
        "phone": "(05)2130802",
        "address": "嘉義縣民雄鄉福樂村建國路三段２５６號",
        "lng": "120.439096",
        "lat": "23.526215"
    },
    "592202A054": {
        "name": "萬泰藥師藥局",
        "phone": "(05)2168605",
        "address": "嘉義市西區民族路４９４號",
        "lng": "120.44904",
        "lat": "23.47605"
    },
    "5921012281": {
        "name": "菁安藥局",
        "phone": "(06)3361683",
        "address": "臺南市東區富強里中華東路二段４９號",
        "lng": "120.233717",
        "lat": "22.987293"
    },
    "5921012325": {
        "name": "林英文藥局",
        "phone": "(06)3311252",
        "address": "臺南市東區關聖里裕農路８６６之２號",
        "lng": "120.2415808",
        "lat": "22.989233"
    },
    "5921012334": {
        "name": "家庭藥局",
        "phone": "(06)2607298",
        "address": "臺南市東區崇文里生產路３６９─３號",
        "lng": "120.22776",
        "lat": "22.965022"
    },
    "5921012361": {
        "name": "崇仁藥局",
        "phone": "(06)2894115",
        "address": "臺南市東區龍山里崇學路２３１號",
        "lng": "120.22436",
        "lat": "22.98125"
    },
    "5921012398": {
        "name": "慈惠藥局",
        "phone": "(06)2760746",
        "address": "臺南市東區前鋒路２７號",
        "lng": "120.212615",
        "lat": "22.98989"
    },
    "5941140035": {
        "name": "全民藥局",
        "phone": "(06)5791057",
        "address": "臺南市官田區隆田里中山路一段４０號",
        "lng": "120.318487",
        "lat": "23.192835"
    },
    "5941150013": {
        "name": "江梁藥師藥局",
        "phone": "(06)5761206",
        "address": "臺南市大內區內江里２８５－１號",
        "lng": "120.359731",
        "lat": "23.118061"
    },
    "5941160028": {
        "name": "俊傑藥局",
        "phone": "(06)7950081",
        "address": "臺南市西港區慶安里中山路２５７號",
        "lng": "120.20328",
        "lat": "23.120871"
    },
    "5941161043": {
        "name": "慧安藥局",
        "phone": "(06)7955535",
        "address": "臺南市西港區西港里慶安路９５之９號",
        "lng": "120.200835",
        "lat": "23.1208499"
    },
    "5941161052": {
        "name": "詠承藥局",
        "phone": "(06)7959427",
        "address": "臺南市西港區中山路３５８號",
        "lng": "120.203291",
        "lat": "23.1223046"
    },
    "5941190017": {
        "name": "憲宗藥局",
        "phone": "(06)7864225",
        "address": "臺南市北門區東壁里７０４號",
        "lng": "120.1409258",
        "lat": "23.2872075"
    },
    "5941200027": {
        "name": "重仁藥局",
        "phone": "(06)5998586",
        "address": "臺南市新市區新市里中興街４８號",
        "lng": "120.294223",
        "lat": "23.078405"
    },
    "5941200045": {
        "name": "慶豐綜合藥局",
        "phone": "(06)5014888",
        "address": "臺南市新市區新和里民生路５７號",
        "lng": "120.290186",
        "lat": "23.078825"
    },
    "5941060014": {
        "name": "富傑藥局",
        "phone": "(06)5907185",
        "address": "臺南市新化區觀音里中正路５４５號",
        "lng": "120.307252",
        "lat": "23.037958"
    },
    "5940050023": {
        "name": "盛安藥局",
        "phone": "(05)2692663",
        "address": "嘉義縣溪口鄉溪東村溪民路４號",
        "lng": "120.400101",
        "lat": "23.604204"
    },
    "5939190025": {
        "name": "呂藥師藥局",
        "phone": "(05)7907472",
        "address": "雲林縣口湖鄉梧南村文光路１２號",
        "lng": "120.190057",
        "lat": "23.545361"
    },
    "5939190061": {
        "name": "盟生藥局",
        "phone": "(05)7907159",
        "address": "雲林縣口湖鄉梧南村文光路９５之６號",
        "lng": "120.190257",
        "lat": "23.5426"
    },
    "5939191139": {
        "name": "寶健藥局",
        "phone": "(05)7907453",
        "address": "雲林縣口湖鄉梧南村光明路１７２號",
        "lng": "120.187122",
        "lat": "23.546795"
    },
    "5939191175": {
        "name": "安泰藥局",
        "phone": "(05)7893589",
        "address": "雲林縣口湖鄉湖東村文安街３４號",
        "lng": "120.182686",
        "lat": "23.586856"
    },
    "592202A241": {
        "name": "博愛藥局",
        "phone": "(05)2330292",
        "address": "嘉義市西區小湖里博愛路二段２７７之１號",
        "lng": "120.44167",
        "lat": "23.48384"
    },
    "592202A296": {
        "name": "秉原藥局",
        "phone": "(05)2285811",
        "address": "嘉義市西區書院里民族路７００號",
        "lng": "120.44352",
        "lat": "23.47554"
    },
    "5939010059": {
        "name": "葉藥局",
        "phone": "(05)5339496",
        "address": "雲林縣斗六市忠孝里大同路２０８號",
        "lng": "120.547361",
        "lat": "23.709499"
    },
    "5939010068": {
        "name": "尚陽中西藥局",
        "phone": "(05)5370248",
        "address": "雲林縣斗六市鎮西里雲林路二段２５０號",
        "lng": "120.529836",
        "lat": "23.702154"
    },
    "5939010200": {
        "name": "永聖藥局",
        "phone": "(05)5329858",
        "address": "雲林縣斗六市鎮北里南京路３９３號１樓",
        "lng": "120.5403895",
        "lat": "23.7147261"
    },
    "5941061146": {
        "name": "欣華藥局",
        "phone": "(06)5908832",
        "address": "臺南市新化區護國里中正路４０４號",
        "lng": "120.308025",
        "lat": "23.036128"
    },
    "5941061173": {
        "name": "杏安藥局",
        "phone": "(06)5801081",
        "address": "臺南市新化區武安里信義路３２０號",
        "lng": "120.306537",
        "lat": "23.034866"
    },
    "5941070029": {
        "name": "資生大藥局",
        "phone": "(06)5837659",
        "address": "臺南市善化區光文里中山路３７號",
        "lng": "120.305221",
        "lat": "23.133287"
    },
    "5939200017": {
        "name": "呂藥局",
        "phone": "(05)7853298",
        "address": "雲林縣水林鄉水北村水林路１８８號",
        "lng": "120.241223",
        "lat": "23.572061"
    },
    "5939200053": {
        "name": "嘉南藥局",
        "phone": "(05)7853216",
        "address": "雲林縣水林鄉水北村自強街２號",
        "lng": "120.245003",
        "lat": "23.572655"
    },
    "5939201158": {
        "name": "健安藥局",
        "phone": "(05)7841025",
        "address": "雲林縣水林鄉松北村蔦松路６９之１號",
        "lng": "120.231843",
        "lat": "23.517412"
    },
    "5939010255": {
        "name": "正效藥局",
        "phone": "(05)5334653",
        "address": "雲林縣斗六市鎮東路２２６號",
        "lng": "120.552045",
        "lat": "23.707204"
    },
    "5939010344": {
        "name": "光華藥局",
        "phone": "(05)5322331",
        "address": "雲林縣斗六市中山路１５號",
        "lng": "120.54197",
        "lat": "23.709784"
    },
    "5939010399": {
        "name": "東京大藥局",
        "phone": "(05)5348073",
        "address": "雲林縣斗六市文化路７９號",
        "lng": "120.548587",
        "lat": "23.711075"
    },
    "5939010504": {
        "name": "桂賓藥局",
        "phone": "(05)5332138",
        "address": "雲林縣斗六市信義里鎮北路３號",
        "lng": "120.543236",
        "lat": "23.711432"
    },
    "5922012061": {
        "name": "北榮藥局",
        "phone": "(05)2280650",
        "address": "嘉義市東區北榮街２號",
        "lng": "120.45241",
        "lat": "23.48205"
    },
    "5941070074": {
        "name": "弘松健保藥局",
        "phone": "(06)5819146",
        "address": "臺南市善化區中興路１０８號",
        "lng": "120.291279",
        "lat": "23.13166"
    },
    "5941070154": {
        "name": "嘉展藥師藥局",
        "phone": "(06)5839112",
        "address": "臺南市善化區坐駕里建國路４５號",
        "lng": "120.297172",
        "lat": "23.127664"
    },
    "5941071188": {
        "name": "仁愛藥局",
        "phone": "(06)5838245",
        "address": "臺南市善化區中山路１７８號",
        "lng": "120.300707",
        "lat": "23.13282"
    },
    "5941080016": {
        "name": "世酆藥局",
        "phone": "(06)7838779",
        "address": "臺南市學甲區仁得里成功路１１－１號",
        "lng": "120.180556",
        "lat": "23.231799"
    },
    "5941080043": {
        "name": "心得藥局",
        "phone": "(06)7835087",
        "address": "臺南市學甲區仁得里建國路８２號",
        "lng": "120.179094",
        "lat": "23.230618"
    },
    "5941080052": {
        "name": "一安藥局",
        "phone": "(06)7835504",
        "address": "臺南市學甲區新生里華宗路４４１號",
        "lng": "120.1825684",
        "lat": "23.2344805"
    },
    "5941081157": {
        "name": "芳鄰藥局",
        "phone": "(06)7822389",
        "address": "臺南市學甲區仁得里建國路１１９號",
        "lng": "120.178532",
        "lat": "23.230383"
    },
    "5940010154": {
        "name": "石原藥局",
        "phone": "(05)3792389",
        "address": "嘉義縣朴子市中正里中正路１４９號",
        "lng": "120.244304",
        "lat": "23.466008"
    },
    "5940011295": {
        "name": "正仁藥局",
        "phone": "(05)3798978",
        "address": "嘉義縣朴子市竹圍里南通路三段５５９號",
        "lng": "120.242699",
        "lat": "23.459316"
    },
    "5940011302": {
        "name": "開元藥局",
        "phone": "(05)3700014",
        "address": "嘉義縣朴子市開元路１５４號",
        "lng": "120.244601",
        "lat": "23.467246"
    },
    "5939130010": {
        "name": "瀧升藥局",
        "phone": "(05)6933880",
        "address": "雲林縣麥寮鄉麥豐村中正路１０３號",
        "lng": "120.253273",
        "lat": "23.748679"
    },
    "5939130029": {
        "name": "見春藥局",
        "phone": "(05)6912265",
        "address": "雲林縣麥寮鄉橋頭村仁德路７４號",
        "lng": "120.278345",
        "lat": "23.796286"
    },
    "5939130047": {
        "name": "中崙保健藥局",
        "phone": "(05)6935697",
        "address": "雲林縣麥寮鄉中山路４４０號",
        "lng": "120.250048",
        "lat": "23.750735"
    },
    "5939130065": {
        "name": "新泰安中西藥局",
        "phone": "(05)6932277",
        "address": "雲林縣麥寮鄉中正路１７號",
        "lng": "120.255152",
        "lat": "23.748269"
    },
    "5939130109": {
        "name": "祐民保健藥局",
        "phone": "(05)6910919",
        "address": "雲林縣麥寮鄉橋頭村仁德路４９號",
        "lng": "120.277801",
        "lat": "23.796049"
    },
    "5922012178": {
        "name": "聖心藥局",
        "phone": "(05)2777189",
        "address": "嘉義市東區大雅路二段５７７號",
        "lng": "120.46764",
        "lat": "23.47718"
    },
    "5922020027": {
        "name": "益昇藥局",
        "phone": "(05)2225570",
        "address": "嘉義市西區榮檜里民生北路３４６號",
        "lng": "120.4459919",
        "lat": "23.482897"
    },
    "5922020063": {
        "name": "弘安藥局",
        "phone": "(05)2259000",
        "address": "嘉義市西區文化路２７７號",
        "lng": "120.4486",
        "lat": "23.48383"
    },
    "5922020303": {
        "name": "新宏祥藥局",
        "phone": "(05)2355588",
        "address": "嘉義市西區湖內里民生南路５７４號",
        "lng": "120.443416",
        "lat": "23.455262"
    },
    "5922020349": {
        "name": "建和藥局",
        "phone": "(05)2353933",
        "address": "嘉義市西區湖內里民生南路６２６號",
        "lng": "120.443117",
        "lat": "23.455061"
    },
    "5941090049": {
        "name": "美安藥局",
        "phone": "(06)6222906",
        "address": "臺南市柳營區士林里柳營路二段１５號",
        "lng": "120.312249",
        "lat": "23.276966"
    },
    "5941100013": {
        "name": "嘉民藥局",
        "phone": "(06)6882322",
        "address": "臺南市後壁區嘉民里上茄苳１４６號",
        "lng": "120.37545",
        "lat": "23.388441"
    },
    "5941100022": {
        "name": "安溪藥局",
        "phone": "(06)6333381",
        "address": "臺南市後壁區福安里１０２之４８號",
        "lng": "120.353596",
        "lat": "23.330607"
    },
    "5941100040": {
        "name": "瑞益藥局",
        "phone": "(06)6881486",
        "address": "臺南市後壁區嘉田里５８－１號",
        "lng": "120.380354",
        "lat": "23.386264"
    },
    "5941031175": {
        "name": "芳瑜藥局",
        "phone": "(06)6857379",
        "address": "臺南市白河區永安里康樂路７２號",
        "lng": "120.414111",
        "lat": "23.349559"
    },
    "5941040012": {
        "name": "杏林藥局",
        "phone": "(06)5722692",
        "address": "臺南市麻豆區晉江里興中路１３６號",
        "lng": "120.252128",
        "lat": "23.183566"
    },
    "5941040049": {
        "name": "安安藥局",
        "phone": "(06)5727475",
        "address": "臺南市麻豆區興中路８８號",
        "lng": "120.250719",
        "lat": "23.183543"
    },
    "5941040067": {
        "name": "永福藥局",
        "phone": "(06)5723329",
        "address": "臺南市麻豆區仁愛路７號",
        "lng": "120.247062",
        "lat": "23.182957"
    },
    "5939140016": {
        "name": "謝藥局",
        "phone": "(05)6991058",
        "address": "雲林縣東勢鄉東南村東勢東路６９號",
        "lng": "120.254853",
        "lat": "23.675099"
    },
    "5939140034": {
        "name": "豐安藥局",
        "phone": "(05)6991672",
        "address": "雲林縣東勢鄉東北村康安路７６號",
        "lng": "120.255504",
        "lat": "23.677011"
    },
    "5939140061": {
        "name": "義和堂中西藥局",
        "phone": "(05)6991028",
        "address": "雲林縣東勢鄉東南村東勢東路１２號",
        "lng": "120.253631",
        "lat": "23.675027"
    },
    "5939150012": {
        "name": "博順藥局",
        "phone": "(05)6971048",
        "address": "雲林縣褒忠鄉中正路３２５之３號",
        "lng": "120.308166",
        "lat": "23.693401"
    },
    "5922020358": {
        "name": "泰春藥局",
        "phone": "(05)2224118",
        "address": "嘉義市西區學圃里民生北路６６號",
        "lng": "120.44677",
        "lat": "23.47543"
    },
    "5922020376": {
        "name": "勝華藥局",
        "phone": "(05)2856642",
        "address": "嘉義市西區垂楊路６２３號",
        "lng": "120.4375068",
        "lat": "23.4726633"
    },
    "5922020483": {
        "name": "逢春藥局",
        "phone": "(05)2326990",
        "address": "嘉義市西區竹圍里北興街４１７號",
        "lng": "120.43477",
        "lat": "23.48739"
    },
    "5922020518": {
        "name": "永安藥局",
        "phone": "(05)2358368",
        "address": "嘉義市西區西平里信義路４９之１號",
        "lng": "120.43441",
        "lat": "23.47431"
    },
    "5922020527": {
        "name": "友愛藥局",
        "phone": "(05)2330599",
        "address": "嘉義市西區福全里友愛路１７０號",
        "lng": "120.43426",
        "lat": "23.48026"
    },
    "5922028569": {
        "name": "三信和興藥局",
        "phone": "(05)2224629",
        "address": "嘉義市西區民安里中正路６９１號",
        "lng": "120.44229",
        "lat": "23.47844"
    },
    "5922028578": {
        "name": "保富藥局",
        "phone": "(05)2365401",
        "address": "嘉義市西區車店村青年街１４號",
        "lng": "120.43788",
        "lat": "23.46905"
    },
    "5941040085": {
        "name": "信興藥局",
        "phone": "(06)5722002",
        "address": "臺南市麻豆區保安里興中路１１５號",
        "lng": "120.2510982",
        "lat": "23.1837991"
    },
    "5941041224": {
        "name": "信義藥局",
        "phone": "(06)5725120",
        "address": "臺南市麻豆區晉江里信義路３４之１２號",
        "lng": "120.253341",
        "lat": "23.18178"
    },
    "5941041233": {
        "name": "神農藥局",
        "phone": "(06)5721136",
        "address": "臺南市麻豆區東角里興中路１９５號",
        "lng": "120.254532",
        "lat": "23.183824"
    },
    "5941050045": {
        "name": "佳晟藥局",
        "phone": "(06)7220732",
        "address": "臺南市佳里區安西里光復路２６５號",
        "lng": "120.174609",
        "lat": "23.163275"
    },
    "5941050054": {
        "name": "立昌藥局",
        "phone": "(06)7225314",
        "address": "臺南市佳里區安西里光復路２４４號",
        "lng": "120.174609",
        "lat": "23.163275"
    },
    "5941050063": {
        "name": "新生中西藥局",
        "phone": "(06)7224563",
        "address": "臺南市佳里區忠仁里新生路８７號",
        "lng": "120.179207",
        "lat": "23.160695"
    },
    "5941050090": {
        "name": "普羅藥局",
        "phone": "(06)7232252",
        "address": "臺南市佳里區新生路３０３號",
        "lng": "120.175507",
        "lat": "23.159977"
    },
    "5941050107": {
        "name": "百興藥局",
        "phone": "(06)7222735",
        "address": "臺南市佳里區安西里文化路２５９號",
        "lng": "120.174461",
        "lat": "23.163265"
    },
    "5939150067": {
        "name": "召安大藥局",
        "phone": "(05)6976066",
        "address": "雲林縣褒忠鄉中勝村中正路４５６之１號",
        "lng": "120.305822",
        "lat": "23.692576"
    },
    "5939151091": {
        "name": "立佳藥局",
        "phone": "(05)6977840",
        "address": "雲林縣褒忠鄉中正路８９號",
        "lng": "120.313872",
        "lat": "23.695132"
    },
    "5939151135": {
        "name": "三民藥局",
        "phone": "(05)6975515",
        "address": "雲林縣褒忠鄉三民路１５號",
        "lng": "120.310933",
        "lat": "23.693518"
    },
    "5939170023": {
        "name": "永昇藥局",
        "phone": "(05)7861838",
        "address": "雲林縣元長鄉下寮村東庄路３５號",
        "lng": "120.334608",
        "lat": "23.618603"
    },
    "5939171039": {
        "name": "嘉民藥局",
        "phone": "(05)7880513",
        "address": "雲林縣元長鄉長南村元南路６２號",
        "lng": "120.3124",
        "lat": "23.648106"
    },
    "5939180010": {
        "name": "仁醫堂中西藥局",
        "phone": "(05)7723399",
        "address": "雲林縣四湖鄉大同路１９號",
        "lng": "120.17983",
        "lat": "23.641915"
    },
    "5922028783": {
        "name": "勝成藥局",
        "phone": "(05)2360247",
        "address": "嘉義市西區南京路１２６巷１９號",
        "lng": "120.44063",
        "lat": "23.45687"
    },
    "5922010218": {
        "name": "淳生藥局",
        "phone": "(05)2247679",
        "address": "嘉義市東區吳鳳北路１００號",
        "lng": "120.453659",
        "lat": "23.4768367"
    },
    "5922010263": {
        "name": "秉榮藥局",
        "phone": "(05)2224320",
        "address": "嘉義市東區東仁里中山路１８９號",
        "lng": "120.45532",
        "lat": "23.48162"
    },
    "5922010272": {
        "name": "晟安藥局",
        "phone": "(05)2274305",
        "address": "嘉義市東區文昌里光彩街２２２號",
        "lng": "120.4560029",
        "lat": "23.4788719"
    },
    "5922010281": {
        "name": "上安中西藥局",
        "phone": "(05)2231005",
        "address": "嘉義市東區府路里延平街２３８號之１",
        "lng": "120.45025",
        "lat": "23.47683"
    },
    "5941051266": {
        "name": "佑佑藥局",
        "phone": "(06)7214426",
        "address": "臺南市佳里區安西里文化路２４８號",
        "lng": "120.174461",
        "lat": "23.163265"
    },
    "5941051417": {
        "name": "賀康藥局",
        "phone": "(06)7221447",
        "address": "臺南市佳里區文化路２０７號",
        "lng": "120.177148",
        "lat": "23.162969"
    },
    "5941051426": {
        "name": "家名藥局",
        "phone": "(06)7236695",
        "address": "臺南市佳里區延平路３５７號",
        "lng": "120.178069",
        "lat": "23.162869"
    },
    "5939180074": {
        "name": "仁安堂藥局",
        "phone": "(05)7875563",
        "address": "雲林縣四湖鄉中山西路１８５號",
        "lng": "120.221632",
        "lat": "23.637452"
    },
    "5939181133": {
        "name": "陽明藥局",
        "phone": "(05)7876519",
        "address": "雲林縣四湖鄉中正路４２２號",
        "lng": "120.225115",
        "lat": "23.634763"
    },
    "5939070135": {
        "name": "鴻銘藥局",
        "phone": "(05)5827919",
        "address": "雲林縣古坑鄉西平村中山路３７７號",
        "lng": "120.560034",
        "lat": "23.65368"
    },
    "5939070162": {
        "name": "廣醫藥局",
        "phone": "(05)5829703",
        "address": "雲林縣古坑鄉西平村中山路２１９號",
        "lng": "120.560843",
        "lat": "23.647716"
    },
    "5939071196": {
        "name": "華慶藥局",
        "phone": "(05)5825488",
        "address": "雲林縣古坑鄉中山路７９號",
        "lng": "120.562123",
        "lat": "23.643624"
    },
    "5939071203": {
        "name": "朝陽藥局",
        "phone": "(05)5828873",
        "address": "雲林縣古坑鄉中山路２３８號",
        "lng": "120.560908",
        "lat": "23.648489"
    },
    "5939080015": {
        "name": "茂恩藥局",
        "phone": "(05)5913677",
        "address": "雲林縣大埤鄉南和村中正路５２之２號",
        "lng": "120.42947",
        "lat": "23.64516"
    },
    "5939081094": {
        "name": "尚成藥局",
        "phone": "(05)5912472",
        "address": "雲林縣大埤鄉中山路７６號",
        "lng": "120.429322",
        "lat": "23.645901"
    },
    "5922010361": {
        "name": "壽生堂藥局",
        "phone": "(05)2225058",
        "address": "嘉義市東區府路里延平街２８０號",
        "lng": "120.4502",
        "lat": "23.47672"
    },
    "5922010405": {
        "name": "信輝藥局",
        "phone": "(05)2252415",
        "address": "嘉義市東區安寮里吳鳳南路３５３號",
        "lng": "120.45539",
        "lat": "23.464283"
    },
    "5922010441": {
        "name": "穎川保健藥局",
        "phone": "(05)2223609",
        "address": "嘉義市東區仁武里中山路２０４號",
        "lng": "120.45172",
        "lat": "23.48096"
    },
    "5922010496": {
        "name": "乙展藥局",
        "phone": "(05)2279556",
        "address": "嘉義市東區蘭井里蘭井街７０號",
        "lng": "120.45514",
        "lat": "23.47807"
    },
    "5922010683": {
        "name": "永富藥局",
        "phone": "(05)2222826",
        "address": "嘉義市東區中央里北榮街９１號",
        "lng": "120.44965",
        "lat": "23.48092"
    },
    "5941310573": {
        "name": "林藥局",
        "phone": "(06)2546564",
        "address": "臺南市永康區鹽行里中正南路７６０號",
        "lng": "120.236542",
        "lat": "23.040576"
    },
    "5941310699": {
        "name": "安安藥局",
        "phone": "(06)2738102",
        "address": "臺南市永康區崑山里大灣路８３４號",
        "lng": "120.257732",
        "lat": "23.000097"
    },
    "5941010130": {
        "name": "張藥師藥局",
        "phone": "(06)6329268",
        "address": "臺南市新營區三仙里民權路４５之１號",
        "lng": "120.312656",
        "lat": "23.305591"
    },
    "5941010185": {
        "name": "安立藥局",
        "phone": "(06)6321689",
        "address": "臺南市新營區王公里中正路９８號",
        "lng": "120.316631",
        "lat": "23.31499"
    },
    "5941010283": {
        "name": "成大藥局",
        "phone": "(06)6524398",
        "address": "臺南市新營區太北里７３之１號",
        "lng": "120.277416",
        "lat": "23.294421"
    },
    "5941010292": {
        "name": "嘉南藥局",
        "phone": "(06)6322613",
        "address": "臺南市新營區中營里中山路３４之３號",
        "lng": "120.321694",
        "lat": "23.307111"
    },
    "5941010309": {
        "name": "鴻達藥局",
        "phone": "(06)6358837",
        "address": "臺南市新營區民生里復興路１２４號",
        "lng": "120.310083",
        "lat": "23.3035"
    },
    "5941010381": {
        "name": "美兆藥局",
        "phone": "(06)6371188",
        "address": "臺南市新營區中正路５３之４號",
        "lng": "120.31637",
        "lat": "23.30654"
    },
    "5941011495": {
        "name": "毛藥局",
        "phone": "(06)6323466",
        "address": "臺南市新營區民權里三民路１０８號",
        "lng": "120.314093",
        "lat": "23.30716"
    },
    "5941011548": {
        "name": "欣欣藥局",
        "phone": "(06)6530179",
        "address": "臺南市新營區太北里１４６之２８號",
        "lng": "120.2747",
        "lat": "23.293651"
    },
    "5939090146": {
        "name": "明泰藥局",
        "phone": "(05)5842824",
        "address": "雲林縣莿桐鄉莿桐村中山路１０６號",
        "lng": "120.500156",
        "lat": "23.757502"
    },
    "5939091170": {
        "name": "西河藥局",
        "phone": "(05)5842950",
        "address": "雲林縣莿桐鄉饒平村饒平路１０２號",
        "lng": "120.519431",
        "lat": "23.777814"
    },
    "5939100030": {
        "name": "仁愛藥局",
        "phone": "(05)5892259",
        "address": "雲林縣林內鄉林中村中正路１８４號",
        "lng": "120.6162",
        "lat": "23.759052"
    },
    "5939100058": {
        "name": "文生堂藥局",
        "phone": "(05)5895103",
        "address": "雲林縣林內鄉光復路２２號",
        "lng": "120.61455",
        "lat": "23.758782"
    },
    "5939110027": {
        "name": "清華藥局",
        "phone": "(05)5982438",
        "address": "雲林縣二崙鄉崙東村中山路一段２８４號",
        "lng": "120.413835",
        "lat": "23.770627"
    },
    "5922010718": {
        "name": "安泰藥局",
        "phone": "(05)2294202",
        "address": "嘉義市東區民族路１８１號",
        "lng": "120.45655",
        "lat": "23.47649"
    },
    "5922010736": {
        "name": "全民藥局",
        "phone": "(05)2777900",
        "address": "嘉義市東區新店里林森東路２８９ 號",
        "lng": "120.4665",
        "lat": "23.49007"
    },
    "5922011877": {
        "name": "大惠藥局",
        "phone": "(05)2766692",
        "address": "嘉義市東區新生路３０９號",
        "lng": "120.46088",
        "lat": "23.48292"
    },
    "5922011966": {
        "name": "源豪藥局",
        "phone": "(05)2169696",
        "address": "嘉義市東區光華路８２號",
        "lng": "120.45291",
        "lat": "23.4782"
    },
    "5922012025": {
        "name": "佑健藥局",
        "phone": "(05)2294833",
        "address": "嘉義市東區光華路２之２號",
        "lng": "120.45553",
        "lat": "23.47687"
    },
    "5921050370": {
        "name": "高明藥師保健藥局",
        "phone": "(06)2143382",
        "address": "臺南市中西區西門路一段４４８號",
        "lng": "120.197762",
        "lat": "22.98275"
    },
    "5921050423": {
        "name": "吉仁大藥局",
        "phone": "(06)2263777",
        "address": "臺南市中西區白金里民權路２段８６號",
        "lng": "120.2044052",
        "lat": "22.9947049"
    },
    "5941310715": {
        "name": "都都藥局",
        "phone": "(06)2314815",
        "address": "臺南市永康區中山南路１２８號",
        "lng": "120.230222",
        "lat": "23.013186"
    },
    "5941310840": {
        "name": "北一藥局",
        "phone": "(06)2012215",
        "address": "臺南市永康區中山南路４３巷５號",
        "lng": "120.226814",
        "lat": "23.012227"
    },
    "5941310859": {
        "name": "菁安藥局",
        "phone": "(06)2031203",
        "address": "臺南市永康區大橋里中華路５９７號",
        "lng": "120.230886",
        "lat": "23.013894"
    },
    "5941310895": {
        "name": "欣康藥局",
        "phone": "(06)2027346",
        "address": "臺南市永康區正強里自強路３９４號",
        "lng": "120.254198",
        "lat": "23.030021"
    },
    "5941310957": {
        "name": "久大藥師藥局",
        "phone": "(06)2724195",
        "address": "臺南市永康區崑山里大灣路１０５８號",
        "lng": "120.252158",
        "lat": "22.999004"
    },
    "5941310966": {
        "name": "永康藥局",
        "phone": "(06)2548606",
        "address": "臺南市永康區尚頂里中華路９８８號之１",
        "lng": "120.222099",
        "lat": "23.021511"
    },
    "5941312022": {
        "name": "華安藥局",
        "phone": "(06)2021030",
        "address": "臺南市永康區中華二路２８２號",
        "lng": "120.232713",
        "lat": "23.008588"
    },
    "5941312184": {
        "name": "大灣藥局",
        "phone": "(06)2728774",
        "address": "臺南市永康區大灣里民族路２９８號",
        "lng": "120.268113",
        "lat": "23.007056"
    },
    "5941011600": {
        "name": "人安藥局",
        "phone": "(06)6376863",
        "address": "臺南市新營區民權里信義街７０號",
        "lng": "120.314761",
        "lat": "23.30782"
    },
    "5941011637": {
        "name": "健而康藥局",
        "phone": "(06)6355224",
        "address": "臺南市新營區中山路２００號",
        "lng": "120.315574",
        "lat": "23.30378"
    },
    "5941011708": {
        "name": "兆豐藥局",
        "phone": "(06)6352205",
        "address": "臺南市新營區忠政里中正路５７之１６號",
        "lng": "120.31647",
        "lat": "23.311403"
    },
    "5941020029": {
        "name": "新崇安藥局",
        "phone": "(06)6521293",
        "address": "臺南市鹽水區三生里朝琴路７號",
        "lng": "120.267959",
        "lat": "23.32096"
    },
    "5941020038": {
        "name": "惠生藥局",
        "phone": "(06)6522279",
        "address": "臺南市鹽水區中正路３１號",
        "lng": "120.267893",
        "lat": "23.319989"
    },
    "5941020056": {
        "name": "民生藥局",
        "phone": "(06)6521071",
        "address": "臺南市鹽水區中境里三福路５１號",
        "lng": "120.266117",
        "lat": "23.320824"
    },
    "5939120032": {
        "name": "崇愛藥局",
        "phone": "(05)6962769",
        "address": "雲林縣崙背鄉信義路８８號",
        "lng": "120.354577",
        "lat": "23.758954"
    },
    "5939120050": {
        "name": "韓藥局",
        "phone": "(05)6962462",
        "address": "雲林縣崙背鄉中山路１６３號",
        "lng": "120.357058",
        "lat": "23.760105"
    },
    "5939120069": {
        "name": "慈恩藥局",
        "phone": "(05)6964122",
        "address": "雲林縣崙背鄉南陽村永昌路６２號",
        "lng": "120.351398",
        "lat": "23.760363"
    },
    "5939120103": {
        "name": "三馬藥師藥局",
        "phone": "(05)6960120",
        "address": "雲林縣崙背鄉南陽村南光路１之２１號",
        "lng": "120.353468",
        "lat": "23.759425"
    },
    "5939121119": {
        "name": "聖心藥局",
        "phone": "(05)6967273",
        "address": "雲林縣崙背鄉南陽村中山路１９３號",
        "lng": "120.356419",
        "lat": "23.760279"
    },
    "5939040164": {
        "name": "一元藥局",
        "phone": "(05)5879987",
        "address": "雲林縣西螺鎮福興路１７５號",
        "lng": "120.460549",
        "lat": "23.800319"
    },
    "5939040208": {
        "name": "廣裕藥師藥局",
        "phone": "(05)5862581",
        "address": "雲林縣西螺鎮中山路１５７號",
        "lng": "120.459902",
        "lat": "23.799931"
    },
    "5921050441": {
        "name": "快安藥局",
        "phone": "(06)2254543",
        "address": "臺南市中西區溫陵里永福路二段８４之１５號",
        "lng": "120.201914",
        "lat": "22.992383"
    },
    "5921050469": {
        "name": "泰毅藥局",
        "phone": "(06)2257181",
        "address": "臺南市中西區友愛街４６之１號",
        "lng": "120.2011789",
        "lat": "22.9912417"
    },
    "5921051537": {
        "name": "大全藥局",
        "phone": "(06)2145007",
        "address": "臺南市中西區府連路３９號",
        "lng": "120.209589",
        "lat": "22.982442"
    },
    "5921051582": {
        "name": "丞功藥局",
        "phone": "(06)2287641",
        "address": "臺南市中西區成功路３１號",
        "lng": "120.209476",
        "lat": "22.997401"
    },
    "5921060072": {
        "name": "翰昌藥局",
        "phone": "(06)2596372",
        "address": "臺南市安南區溪東里北安路二段１１９號",
        "lng": "120.204562",
        "lat": "23.027204"
    },
    "5921060116": {
        "name": "守利藥局",
        "phone": "(06)3559347",
        "address": "臺南市安南區卅南里安和路４段６１６號",
        "lng": "120.218878",
        "lat": "23.063089"
    },
    "5921060143": {
        "name": "嘉庭藥局",
        "phone": "(06)2581618",
        "address": "臺南市安南區海佃里國安街１１８號",
        "lng": "120.188706",
        "lat": "23.022403"
    },
    "5921060152": {
        "name": "友信藥局",
        "phone": "(06)2822785",
        "address": "臺南市安南區溪頂里北安路二段８６號",
        "lng": "120.205146",
        "lat": "23.02765"
    },
    "5921060161": {
        "name": "仲宏藥局",
        "phone": "(06)2567798",
        "address": "臺南市安南區淵中里安中路３段４３１號",
        "lng": "120.173692",
        "lat": "23.05"
    },
    "5921060170": {
        "name": "明杰藥局",
        "phone": "(06)2567821",
        "address": "臺南市安南區理想里大安街９８號",
        "lng": "120.192447",
        "lat": "23.032324"
    },
    "5921060198": {
        "name": "平光藥局",
        "phone": "(06)2459641",
        "address": "臺南市安南區安中路１段８２２號",
        "lng": "120.194653",
        "lat": "23.043704"
    },
    "5921060205": {
        "name": "建壽藥局",
        "phone": "(06)2555388",
        "address": "臺南市安南區海東里海佃路２段５７２號",
        "lng": "120.187399",
        "lat": "23.042208"
    },
    "5921060214": {
        "name": "昌泰藥局",
        "phone": "(06)2591971",
        "address": "臺南市安南區溪東里海佃路一段１５８巷５７號",
        "lng": "120.198629",
        "lat": "23.025272"
    },
    "5921060223": {
        "name": "旺生藥局",
        "phone": "(06)2476888",
        "address": "臺南市安南區理想里同安路６８巷２３號",
        "lng": "120.189726",
        "lat": "23.039187"
    },
    "5941312255": {
        "name": "方藥師藥局",
        "phone": "(06)3025013",
        "address": "臺南市永康區大橋一街５７之３號",
        "lng": "120.227548",
        "lat": "23.017005"
    },
    "5941312273": {
        "name": "莘莘藥局",
        "phone": "(06)2033611",
        "address": "臺南市永康區永大路二段１５３８號",
        "lng": "120.260998",
        "lat": "23.025332"
    },
    "5941312282": {
        "name": "麻吉的藥局",
        "phone": "(06)2316123",
        "address": "臺南市永康區中山北路１０８號",
        "lng": "120.259833",
        "lat": "23.027025"
    },
    "5941030043": {
        "name": "源大醫藥局",
        "phone": "(06)6831128",
        "address": "臺南市白河區永安里中正路５５號",
        "lng": "120.413612",
        "lat": "23.349654"
    },
    "5941030089": {
        "name": "新信安藥局",
        "phone": "(06)6852173",
        "address": "臺南市白河區中山路５１號",
        "lng": "120.414996",
        "lat": "23.349644"
    },
    "5941030114": {
        "name": "協宏藥局",
        "phone": "(06)6852961",
        "address": "臺南市白河區竹門里９８之３號",
        "lng": "120.446572",
        "lat": "23.376971"
    },
    "5940121205": {
        "name": "楊藥局",
        "phone": "(05)2890687",
        "address": "嘉義縣水上鄉忠和村６８之５號",
        "lng": "120.437952",
        "lat": "23.420871"
    },
    "5940121241": {
        "name": "杏同藥局",
        "phone": "(05)2600037",
        "address": "嘉義縣水上鄉水頭村中正路１１６號",
        "lng": "120.402176",
        "lat": "23.4282"
    },
    "5940130035": {
        "name": "康寧藥局",
        "phone": "(05)2391380",
        "address": "嘉義縣中埔鄉中山路５段９１９號",
        "lng": "120.46011",
        "lat": "23.452657"
    },
    "5940130071": {
        "name": "祥安藥局",
        "phone": "(05)2534897",
        "address": "嘉義縣中埔鄉隆興村１０鄰６號",
        "lng": "120.529152",
        "lat": "23.441674"
    },
    "5940130080": {
        "name": "華大藥局",
        "phone": "(05)2531223",
        "address": "嘉義縣中埔鄉中埔村中正路３５號",
        "lng": "120.52358",
        "lat": "23.424199"
    },
    "5939040217": {
        "name": "同德藥局",
        "phone": "(05)5863276",
        "address": "雲林縣西螺鎮正興里中山路１１３號",
        "lng": "120.461455",
        "lat": "23.799942"
    },
    "5939040253": {
        "name": "福安藥局",
        "phone": "(05)5871281",
        "address": "雲林縣西螺鎮福田里社口路８３號",
        "lng": "120.4399929",
        "lat": "23.7886153"
    },
    "5939041465": {
        "name": "仁祥藥局",
        "phone": "(05)5882111",
        "address": "雲林縣西螺鎮中和里中山路４６號",
        "lng": "120.46279",
        "lat": "23.800131"
    },
    "5939041483": {
        "name": "建興藥局",
        "phone": "(05)5868267",
        "address": "雲林縣西螺鎮建興路２０２號",
        "lng": "120.459322",
        "lat": "23.799038"
    },
    "5939050044": {
        "name": "健康藥局",
        "phone": "(05)6622889",
        "address": "雲林縣土庫鎮順天里中正路１１號",
        "lng": "120.388049",
        "lat": "23.673901"
    },
    "5939050062": {
        "name": "明玄藥局",
        "phone": "(05)6652986",
        "address": "雲林縣土庫鎮北平里民權路１８－１號",
        "lng": "120.354056",
        "lat": "23.706028"
    },
    "5921060321": {
        "name": "慈安藥局",
        "phone": "(06)2551117",
        "address": "臺南市安南區大安街５３號",
        "lng": "120.191887",
        "lat": "23.03148"
    },
    "5921060358": {
        "name": "長青大藥局",
        "phone": "(06)2812896",
        "address": "臺南市安南區安和路一段９３號",
        "lng": "120.214917",
        "lat": "23.027798"
    },
    "5921060394": {
        "name": "土城藥師藥局",
        "phone": "(06)2571872",
        "address": "臺南市安南區城北路７５號",
        "lng": "120.131053",
        "lat": "23.063421"
    },
    "5921061453": {
        "name": "文安藥局",
        "phone": "(06)2473992",
        "address": "臺南市安南區同安路４０２號",
        "lng": "120.193657",
        "lat": "23.044456"
    },
    "5921061551": {
        "name": "安佃藥局",
        "phone": "(06)2452387",
        "address": "臺南市安南區海佃路四段３８８巷１０７弄２２號之１",
        "lng": "120.175737",
        "lat": "23.066441"
    },
    "5921061588": {
        "name": "安中藥局",
        "phone": "(06)2570500",
        "address": "臺南市安南區城北里安中路６段７１８號",
        "lng": "120.128347",
        "lat": "23.065088"
    },
    "5921061604": {
        "name": "泰赫中西藥局",
        "phone": "(06)2562317",
        "address": "臺南市安南區安中路４段７９號",
        "lng": "120.17222",
        "lat": "23.049564"
    },
    "5921070041": {
        "name": "博理藥局",
        "phone": "(06)2202521",
        "address": "臺南市安平區石門里安平路６７６號",
        "lng": "120.167007",
        "lat": "22.999443"
    },
    "5941281335": {
        "name": "大力藥局",
        "phone": "(06)2398273",
        "address": "臺南市歸仁區後市里中山路二段１５１號",
        "lng": "120.290837",
        "lat": "22.967018"
    },
    "5940130142": {
        "name": "顏藥局",
        "phone": "(05)2536459",
        "address": "嘉義縣中埔鄉中埔村中正路４４號",
        "lng": "120.523692",
        "lat": "23.424326"
    },
    "5940140031": {
        "name": "泰安藥局",
        "phone": "(05)2542758",
        "address": "嘉義縣竹崎鄉內埔村元興路１０６號",
        "lng": "120.559826",
        "lat": "23.48518"
    },
    "5940140068": {
        "name": "邱藥局",
        "phone": "(05)2791199",
        "address": "嘉義縣竹崎鄉灣橋村３６３號",
        "lng": "120.50419",
        "lat": "23.491557"
    },
    "5940140077": {
        "name": "保健藥局",
        "phone": "(05)2541226",
        "address": "嘉義縣竹崎鄉內埔村元興路１１９之１號",
        "lng": "120.559239",
        "lat": "23.485281"
    },
    "5940140102": {
        "name": "三源藥局",
        "phone": "(05)2611021",
        "address": "嘉義縣竹崎鄉竹崎村中山路２０６號",
        "lng": "120.549913",
        "lat": "23.520233"
    },
    "5940140111": {
        "name": "大豐藥局",
        "phone": "(05)2542688",
        "address": "嘉義縣竹崎鄉內埔村元興路１１１號",
        "lng": "120.559405",
        "lat": "23.485252"
    },
    "5939050071": {
        "name": "義泰藥局",
        "phone": "(05)6624778",
        "address": "雲林縣土庫鎮宮北里中正路２０２號",
        "lng": "120.391411",
        "lat": "23.677188"
    },
    "5939050124": {
        "name": "常春藤藥局",
        "phone": "(05)6627371",
        "address": "雲林縣土庫鎮忠正里中山路２４６號",
        "lng": "120.392266",
        "lat": "23.677557"
    },
    "5939060111": {
        "name": "慶輝藥局",
        "phone": "(05)7835078",
        "address": "雲林縣北港鎮華勝里大同路２３２號",
        "lng": "120.3012",
        "lat": "23.571994"
    },
    "5939060184": {
        "name": "慧民藥局",
        "phone": "(05)7821764",
        "address": "雲林縣北港鎮仁安里文化路７１號",
        "lng": "120.301836",
        "lat": "23.569994"
    },
    "5939060255": {
        "name": "家庭藥局",
        "phone": "(05)7826739",
        "address": "雲林縣北港鎮文化路１０１號",
        "lng": "120.302262",
        "lat": "23.570821"
    },
    "5939060317": {
        "name": "益安大藥局",
        "phone": "(05)7730779",
        "address": "雲林縣北港鎮華勝里公園路１８之２號",
        "lng": "120.302784",
        "lat": "23.574344"
    },
    "5939060371": {
        "name": "宏仁藥局",
        "phone": "(05)7839890",
        "address": "雲林縣北港鎮大同路３３２號",
        "lng": "120.298846",
        "lat": "23.572729"
    },
    "5921040221": {
        "name": "好鄰居藥局",
        "phone": "(06)2219015",
        "address": "臺南市北區西華里公園路１２８號２樓７室",
        "lng": "120.207641",
        "lat": "22.998894"
    },
    "5921040276": {
        "name": "全一藥局",
        "phone": "(06)2580021",
        "address": "臺南市北區大豐里和緯路四段９５巷３８號",
        "lng": "120.191222",
        "lat": "23.0076"
    },
    "5941291171": {
        "name": "健新藥局",
        "phone": "(06)5952093",
        "address": "臺南市關廟區香洋里中正路９４７號",
        "lng": "120.329424",
        "lat": "22.962108"
    },
    "5941310064": {
        "name": "鐘藥局",
        "phone": "(06)2726635",
        "address": "臺南市永康區崑山里大灣路１０１２號",
        "lng": "120.253324",
        "lat": "22.999212"
    },
    "5941310082": {
        "name": "良方藥局",
        "phone": "(06)2325057",
        "address": "臺南市永康區永康里中山路３９號",
        "lng": "120.256744",
        "lat": "23.027402"
    },
    "5941310162": {
        "name": "重安藥局",
        "phone": "(06)2327271",
        "address": "臺南市永康區龍潭街１９０號",
        "lng": "120.26723",
        "lat": "23.033703"
    },
    "5941310171": {
        "name": "正華藥局",
        "phone": "(06)2323618",
        "address": "臺南市永康區永康里永康街１７號",
        "lng": "120.256476",
        "lat": "23.025357"
    },
    "5941310199": {
        "name": "嘉軒藥局",
        "phone": "(06)2713329",
        "address": "臺南市永康區西勢里富強路一段３５１號",
        "lng": "120.275122",
        "lat": "23.020674"
    },
    "5940140148": {
        "name": "仁壽藥局",
        "phone": "(05)2612328",
        "address": "嘉義縣竹崎鄉竹崎村中山路１８９號",
        "lng": "120.54989",
        "lat": "23.519872"
    },
    "5940150055": {
        "name": "榮輝藥局",
        "phone": "(05)2620403",
        "address": "嘉義縣梅山鄉梅東村中山路２６－３號",
        "lng": "120.559356",
        "lat": "23.579662"
    },
    "5940161030": {
        "name": "博勝藥局",
        "phone": "(05)2591127",
        "address": "嘉義縣番路鄉下坑村下坑５３號",
        "lng": "120.537168",
        "lat": "23.47262"
    },
    "5941010041": {
        "name": "三光堂藥局",
        "phone": "(06)6322553",
        "address": "臺南市新營區延平路５７號",
        "lng": "120.313623",
        "lat": "23.300999"
    },
    "5941010103": {
        "name": "亞洲藥局",
        "phone": "(06)6327366",
        "address": "臺南市新營區延平里復興路３３之２號",
        "lng": "120.312621",
        "lat": "23.302867"
    },
    "5939061412": {
        "name": "久久藥局",
        "phone": "(05)7835949",
        "address": "雲林縣北港鎮公園路４７－１號",
        "lng": "120.302573",
        "lat": "23.573928"
    },
    "5939030177": {
        "name": "上方藥局",
        "phone": "(05)6332828",
        "address": "雲林縣虎尾鎮中山里中正路１７７號",
        "lng": "120.432539",
        "lat": "23.707655"
    },
    "5939030211": {
        "name": "晉泰藥局",
        "phone": "(05)6327777",
        "address": "雲林縣虎尾鎮新興里中正路１８號",
        "lng": "120.436849",
        "lat": "23.709759"
    },
    "5939030220": {
        "name": "寶全藥局",
        "phone": "(05)6322169",
        "address": "雲林縣虎尾鎮中山里新興路８５號",
        "lng": "120.434452",
        "lat": "23.709499"
    },
    "5939030284": {
        "name": "張維修藥局",
        "phone": "(05)6326456",
        "address": "雲林縣虎尾鎮林森路一段３６６號",
        "lng": "120.436042",
        "lat": "23.711789"
    },
    "5939030364": {
        "name": "勝泰中西藥局",
        "phone": "(05)6329479",
        "address": "雲林縣虎尾鎮林森路一段４２７號",
        "lng": "120.43531",
        "lat": "23.710682"
    },
    "5921040294": {
        "name": "澄清堂藥局",
        "phone": "(06)2377224",
        "address": "臺南市北區勝利路４９５號",
        "lng": "120.218469",
        "lat": "23.006477"
    },
    "5921040301": {
        "name": "永生藥局",
        "phone": "(06)2813681",
        "address": "臺南市北區六甲里公園路４８１號",
        "lng": "120.2101248",
        "lat": "23.0089787"
    },
    "5921040392": {
        "name": "宏吉藥局",
        "phone": "(06)2589692",
        "address": "臺南市北區大港里大興街２２４號",
        "lng": "120.18789",
        "lat": "23.01085"
    },
    "5921040409": {
        "name": "華成藥局",
        "phone": "(06)2344553",
        "address": "臺南市北區華興里南園街１１１號",
        "lng": "120.22573",
        "lat": "23.007568"
    },
    "5921040436": {
        "name": "嘉洲藥局",
        "phone": "(06)2583180",
        "address": "臺南市北區文元里文賢路２４０號",
        "lng": "120.193763",
        "lat": "23.015306"
    },
    "5921040481": {
        "name": "眾安藥局",
        "phone": "(06)2588339",
        "address": "臺南市北區文元里文賢路１０３４號",
        "lng": "120.193763",
        "lat": "23.015306"
    },
    "5921040623": {
        "name": "惠光藥局",
        "phone": "(06)2586316",
        "address": "臺南市北區文亢里文賢路２３６號",
        "lng": "120.193839",
        "lat": "23.004196"
    },
    "5921040678": {
        "name": "賀康藥局",
        "phone": "(06)2819515",
        "address": "臺南市北區公園路７０１號",
        "lng": "120.214559",
        "lat": "23.016705"
    },